OBJECTID,Date_Start,Date_Finish,Acres,FireCause,Lat,Long,DispatchCenterID,PredominantFuelGroup,State,Fire_Duration,Fire_Duration_Group,Address,URLAddress,tempmax,tempmin,temp,humidity,precip,windspeed,pressure,visibility,solarradiation,conditions
127,10/18/2020,3/10/2021,562.9135044,Unknown,36.07114,-121.4505,CALPCC,Unknown,US-CA,143,Group-5,"Monterey County, California, United States",Monterey%20County%2C%20California%2C%20United%20States,66,49.9,58.8,67.29,0,12.7,1015.8,9.2,515.4,Clear
128,5/1/2020,5/15/2020,0.151680183,Unknown,39.55669,-119.5585,NVSFC,Grass,US-NV,,,"28, I 80, Patrick, Washoe County, Nevada, 89434, United States",28%2C%20I%2080%2C%20Patrick%2C%20Washoe%20County%2C%20Nevada%2C%2089434%2C%20United%20States,80.2,41.2,60.6,25.39,0,18.6,1015.5,9.9,510.1,Clear
129,8/8/2020,8/20/2020,0.3,Human,33.29384,-110.45,AZPHC,Grass-Shrub,US-AZ,12,Group-1,"2, West la Bamba, Graham County, Arizona, 85542, United States",2%2C%20West%20la%20Bamba%2C%20Graham%20County%2C%20Arizona%2C%2085542%2C%20United%20States,,,,,,,,,,
130,5/8/2020,5/26/2020,44.30051698,Human,35.87582,-115.2041,NVLIC,Grass-Shrub,US-NV,18,Group-2,"Clark County, Nevada, United States",Clark%20County%2C%20Nevada%2C%20United%20States,89.5,58.6,76.9,11.12,0,6.9,1011,9.9,482.7,Clear
133,8/21/2020,8/22/2020,4,Human,44.03513101,-103.0360372,SDGPC,Grass,US-SD,1,Group-1,"Pennington County, South Dakota, United States",Pennington%20County%2C%20South%20Dakota%2C%20United%20States,61.8,33.3,47.4,59.35,0.07,20.1,1017,9.8,336,"Rain, Partially cloudy"
136,3/7/2021,3/9/2021,0.93,Human,34.4559,-114.3719,AZPDC,Unknown,US-AZ,2,Group-1,"981, Beachcomber Boulevard, Lake Havasu City, Mohave County, Arizona, 86403, United States",981%2C%20Beachcomber%20Boulevard%2C%20Lake%20Havasu%20City%2C%20Mohave%20County%2C%20Arizona%2C%2086403%2C%20United%20States,95,67.2,82.3,9.98,0,14.6,1010.3,9.9,479.8,Clear
139,10/15/2020,12/3/2020,0.1,Human,33.336,-110.4686,AZPHC,Grass,US-AZ,49,Group-4,"Powerline Road, Gila County, Arizona, 85542, United States",Powerline%20Road%2C%20Gila%20County%2C%20Arizona%2C%2085542%2C%20United%20States,93.5,59.9,78.9,18.49,0,21,1010.1,9.8,460.7,Clear
141,12/24/2020,12/30/2020,1,Human,34.89249,-95.26115,ARAOC,Timber,US-OK,6,Group-1,"Blue Mountain Road, Latimer County, Oklahoma, 74578, United States",Blue%20Mountain%20Road%2C%20Latimer%20County%2C%20Oklahoma%2C%2074578%2C%20United%20States,63.3,50.3,59.2,85.96,0.14,13.5,1011.4,9.5,130,"Rain, Partially cloudy"
142,3/20/2021,4/16/2021,1,Human,34.60244,-98.68604,ARAOC,Grass,US-OK,27,Group-2,"991, Post Oak Road, Comanche County, Oklahoma, 73552, United States",991%2C%20Post%20Oak%20Road%2C%20Comanche%20County%2C%20Oklahoma%2C%2073552%2C%20United%20States,69.8,54.3,61.2,65.11,0.34,23.6,1014.1,9.9,497.7,"Rain, Partially cloudy"
144,8/27/2020,9/11/2020,0.8,Natural,46.14511,-114.0459,MTBRC,Grass-Shrub,US-MT,15,Group-2,"Ravalli County, Montana, United States",Ravalli%20County%2C%20Montana%2C%20United%20States,61.1,39.8,51.3,48.26,0.02,23,1018.1,9.9,268.5,"Rain, Partially cloudy"
145,9/15/2020,9/15/2020,4,Human,42.407211,-71.382437,NHNEC,Grass,US-MA,0,Group-1,"991, Concord Road, North Sudbury, Sudbury, Middlesex County, Massachusetts, 01776, United States",991%2C%20Concord%20Road%2C%20North%20Sudbury%2C%20Sudbury%2C%20Middlesex%20County%2C%20Massachusetts%2C%2001776%2C%20United%20States,,,,,,,,,,
148,10/17/2020,11/13/2020,3496.26613,Human,40.2339,-111.6577,UTNUC,Unknown,US-UT,27,Group-2,"Guru's, East Center Street, Downtown, Provo, Utah County, Utah, 84606, United States",Guru's%2C%20East%20Center%20Street%2C%20Downtown%2C%20Provo%2C%20Utah%20County%2C%20Utah%2C%2084606%2C%20United%20States,66.8,42.2,55.7,46.06,0,11.5,1015.7,9.9,382.3,Partially cloudy
150,8/18/2020,9/1/2020,51576.74401,Natural,40.14235,-123.0594,CATGCC,Brush,US-CA,,,"Trinity County, California, United States",Trinity%20County%2C%20California%2C%20United%20States,90,65.9,75.7,31.11,0,16.1,1012.9,9.9,531.9,Clear
152,8/6/2020,8/10/2020,4.86,Natural,44.4773,-118.8608,ORJDCC,Unknown,US-OR,4,Group-1,"Grant County, Oregon, United States",Grant%20County%2C%20Oregon%2C%20United%20States,63,47.6,53.3,62.61,0.04,8.1,1021,9.8,298.1,"Rain, Partially cloudy"
153,10/18/2020,11/1/2020,10133.955,Unknown,36.27003,-105.3278,NMTDC,Unknown,US-NM,,,"Colfax County, New Mexico, United States",Colfax%20County%2C%20New%20Mexico%2C%20United%20States,64,37.4,47.8,56.82,0.01,18.4,1016.2,9.8,358.6,"Rain, Partially cloudy"
157,6/14/2020,6/22/2020,4,Human,46.5407855,-108.3748779,MTNCA,Timber,US-MT,8,Group-1,"572, North Gage Road, Musselshell County, Montana, 59072, United States",572%2C%20North%20Gage%20Road%2C%20Musselshell%20County%2C%20Montana%2C%2059072%2C%20United%20States,55.4,38.1,46.6,53.27,0.01,27.1,1016.2,9.9,175.8,"Rain, Partially cloudy"
159,8/30/2020,11/19/2020,26751.75554,Unknown,38.64249,-119.5275,NVSFC,Unknown,US-CA,81,Group-5,"El Camino Sierra, Mono County, California, United States",El%20Camino%20Sierra%2C%20Mono%20County%2C%20California%2C%20United%20States,73.9,48.8,61.6,31.54,0,9.2,1015.1,9.9,423.9,Clear
163,8/19/2020,8/21/2020,4,Human,44.78692,-119.0711,ORJDCC,Unknown,US-OR,2,Group-1,"Long Creek-Pass Creek Road, Grant County, Oregon, United States",Long%20Creek-Pass%20Creek%20Road%2C%20Grant%20County%2C%20Oregon%2C%20United%20States,63,47.6,53.3,62.61,0.04,8.1,1021,9.8,444.3,"Rain, Partially cloudy"
167,3/9/2021,3/9/2021,0.1,Human,34.91935,-95.1033,ARAOC,Unknown,US-OK,0,Group-1,"Latimer County, Oklahoma, United States",Latimer%20County%2C%20Oklahoma%2C%20United%20States,63.3,49.1,59.1,86.33,0.15,14.2,1011.5,9.4,130,"Rain, Partially cloudy"
168,9/25/2020,10/9/2020,124.5232842,Unknown,41.03678,-107.5355,WYCPC,Grass-Shrub,US-WY,,,"McCarty Canyon Road, Dixon, Carbon County, Wyoming, United States",McCarty%20Canyon%20Road%2C%20Dixon%2C%20Carbon%20County%2C%20Wyoming%2C%20United%20States,50.7,27.3,39.3,70.89,0.03,21.3,1018.4,9.9,291.2,"Rain, Partially cloudy"
170,8/8/2020,8/10/2020,4,Human,44.758333,-119.100556,ORJDCC,Unknown,US-OR,2,Group-1,"Volny Long Creek Airstrip, Pendleton-John Day Highway, Grant County, Oregon, United States",Volny%20Long%20Creek%20Airstrip%2C%20Pendleton-John%20Day%20Highway%2C%20Grant%20County%2C%20Oregon%2C%20United%20States,62.7,45,53.1,59.97,0.06,6.1,1020.4,9.9,389.7,"Rain, Partially cloudy"
173,1/29/2021,1/30/2021,16.5,Human,44.38801,-108.9772,WYCDC,Grass-Shrub,US-WY,1,Group-1,"WY 120, Dry Creek, Park County, Wyoming, 82433, United States",WY%20120%2C%20Dry%20Creek%2C%20Park%20County%2C%20Wyoming%2C%2082433%2C%20United%20States,81.5,60.5,70.4,36.79,0,21.6,1012.8,9.9,472.8,Clear
174,6/16/2020,6/18/2020,4,Human,35.62577,-97.99472,ARAOC,Grass,US-OK,2,Group-1,"Black Kettle Boulevard, Concho, El Reno, Canadian County, Oklahoma, 73022, United States",Black%20Kettle%20Boulevard%2C%20Concho%2C%20El%20Reno%2C%20Canadian%20County%2C%20Oklahoma%2C%2073022%2C%20United%20States,65.2,50.1,57.7,67.24,0.29,21.4,1014.3,9.4,390.4,"Rain, Partially cloudy"
182,8/17/2020,8/20/2020,4,Natural,44.47685,-119.218,ORJDCC,Unknown,US-OR,3,Group-1,"Field Trail, Grant County, Oregon, United States",Field%20Trail%2C%20Grant%20County%2C%20Oregon%2C%20United%20States,63,47.6,53.3,62.61,0.04,8.1,1021,9.8,478.6,"Rain, Partially cloudy"
183,4/20/2020,4/22/2020,0.025794,Human,42.10453,-112.9403,IDEIC,Grass-Shrub,US-ID,2,Group-1,"I 84, Oneida County, Idaho, United States",I%2084%2C%20Oneida%20County%2C%20Idaho%2C%20United%20States,,,,,,,,,,
186,7/5/2020,7/19/2020,5513.187585,Unknown,37.023934,-121.513722,CASCCC,Unknown,US-CA,,,"7465, Crews Road, Santa Clara County, California, 95020, United States",7465%2C%20Crews%20Road%2C%20Santa%20Clara%20County%2C%20California%2C%2095020%2C%20United%20States,85.3,48.1,64.5,54.15,0,17.7,1014.1,9.9,459.1,Clear
187,11/9/2020,11/23/2020,0.1,Human,41.605278,-87.206389,INIIC,Timber,US-IN,,,"Stagecoach Road, Harbor Oaks, Portage, Porter County, Indiana, 46368, United States",Stagecoach%20Road%2C%20Harbor%20Oaks%2C%20Portage%2C%20Porter%20County%2C%20Indiana%2C%2046368%2C%20United%20States,62.6,46.6,50.7,89.11,0,11.1,1009.8,8.7,77.7,Overcast
189,8/13/2020,10/1/2020,4119.202185,Human,34.15672,-117.9107,CALACC,Unknown,US-CA,49,Group-4,"1803, Morningside Court, Azusa, California, 91702, United States",1803%2C%20Morningside%20Court%2C%20Azusa%2C%20California%2C%2091702%2C%20United%20States,86.8,57,70.4,59.26,0,15.5,1012.3,9.4,502.1,Clear
191,7/1/2020,7/9/2020,13.26789924,Human,32.64495,-111.3929,AZTDC,Unknown,US-AZ,8,Group-1,"Pinal County, Arizona, 85141, United States",Pinal%20County%2C%20Arizona%2C%2085141%2C%20United%20States,91.2,60.1,77.4,18.42,0,8.5,1011.9,9.9,369.8,Clear
193,7/6/2020,7/20/2020,4,Human,45.22878,-120.72,ORCOC,Grass-Shrub,US-OR,,,"Sherman Highway, Kent, Sherman County, Oregon, United States",Sherman%20Highway%2C%20Kent%2C%20Sherman%20County%2C%20Oregon%2C%20United%20States,75.8,52.1,64.4,47.32,0,20.3,1020,9.9,485.9,Clear
194,9/28/2020,9/30/2020,4,Human,44.03513101,-103.0360372,SDGPC,Timber,US-SD,2,Group-1,"Pennington County, South Dakota, United States",Pennington%20County%2C%20South%20Dakota%2C%20United%20States,61.8,33.3,47.4,59.35,0.07,20.1,1017,9.8,336,"Rain, Partially cloudy"
195,3/8/2020,3/27/2020,224.0755085,Human,37.02753,-91.23881,MOMOC,Timber,US-MO,19,Group-2,"County Road H-563, Low Wassie, Shannon County, Missouri, United States",County%20Road%20H-563%2C%20Low%20Wassie%2C%20Shannon%20County%2C%20Missouri%2C%20United%20States,66.8,47.9,59.3,89.28,1.34,15,1009.7,7.7,60.6,"Rain, Partially cloudy"
196,7/21/2020,7/30/2020,1.839062939,Natural,38.99669,-119.5408,NVSFC,Timber,US-NV,9,Group-1,"Douglas County, Nevada, United States",Douglas%20County%2C%20Nevada%2C%20United%20States,77.3,29.9,54.1,39.22,0,19.5,1018.4,9.9,547.6,Clear
197,2/18/2021,3/5/2021,44.85458969,Human,36.09058,-115.0345,NVLIC,Unknown,US-NV,15,Group-2,"5478, Flowing Spring Street, East Las Vegas, Whitney, Clark County, Nevada, 89122, United States",5478%2C%20Flowing%20Spring%20Street%2C%20East%20Las%20Vegas%2C%20Whitney%2C%20Clark%20County%2C%20Nevada%2C%2089122%2C%20United%20States,89.4,61.4,77.1,10.99,0,5.3,1011.3,9.9,482.7,Clear
200,8/5/2020,8/6/2020,0.5,Unknown,42.3689,-105.4883,WYCPC,Grass-Shrub,US-WY,1,Group-1,"Converse County, Wyoming, United States",Converse%20County%2C%20Wyoming%2C%20United%20States,56.1,27.4,43.2,64.53,0.02,18.6,1016.9,9.9,300.6,"Rain, Partially cloudy"
203,6/19/2020,6/26/2020,4,Human,31.75981,-111.9623,AZTDC,Unknown,US-AZ,7,Group-1,"Pima County, Arizona, United States",Pima%20County%2C%20Arizona%2C%20United%20States,86,52.1,71.6,19.93,0,13.9,1010.4,9.9,583.6,Clear
204,5/2/2020,5/6/2020,0.756747572,Human,39.64943,-116.0325,NVCNC,Brush,US-NV,4,Group-1,"Eureka / Carlin Road, Shannon, Eureka County, Nevada, 89822, United States",Eureka%20%2F%20Carlin%20Road%2C%20Shannon%2C%20Eureka%20County%2C%20Nevada%2C%2089822%2C%20United%20States,,,,,,,,,,
207,6/12/2020,6/17/2020,4,Human,33.84206,-112.3329,AZPDC,Grass,US-AZ,5,Group-1,"North Christian Church Camp Road, Peoria, Maricopa County, Arizona, United States",North%20Christian%20Church%20Camp%20Road%2C%20Peoria%2C%20Maricopa%20County%2C%20Arizona%2C%20United%20States,91.7,64.4,79.5,16.13,0,9.7,1009.8,9.9,474.3,Clear
212,7/20/2020,7/21/2020,56.75,Human,34.13575,-117.1915,CASBCC,Unknown,US-CA,1,Group-1,"Steve Faris Memorial Highway, Highland, San Bernardino County, California, 92346, United States",Steve%20Faris%20Memorial%20Highway%2C%20Highland%2C%20San%20Bernardino%20County%2C%20California%2C%2092346%2C%20United%20States,87.1,49.4,68.1,46.05,0,18.6,1013,9.9,494.1,Clear
214,12/29/2020,12/31/2020,4,Human,34.92741,-98.41821,ARAOC,Grass,US-OK,2,Group-1,"11034, E1440 Road, Caddo County, Oklahoma, 73006, United States",11034%2C%20E1440%20Road%2C%20Caddo%20County%2C%20Oklahoma%2C%2073006%2C%20United%20States,,,,,,,,,,
216,3/12/2021,3/31/2021,4.635735481,Human,29.05793,-81.83696,FLFIC,Timber,US-FL,19,Group-2,"11343, Southeast 189th Terrace, Marion County, Florida, 32179, United States",11343%2C%20Southeast%20189th%20Terrace%2C%20Marion%20County%2C%20Florida%2C%2032179%2C%20United%20States,92.9,71.1,81.7,70.78,0.1,10.5,1015.8,9.4,484.8,Rain
218,6/9/2020,6/23/2020,4,Human,34.03764,-118.69873,CALACC,Unknown,US-CA,,,"3658, Winter Canyon Road, Malibu, Los Angeles County, California, 90265, United States",3658%2C%20Winter%20Canyon%20Road%2C%20Malibu%2C%20Los%20Angeles%20County%2C%20California%2C%2090265%2C%20United%20States,74.7,58.5,65.6,65.66,0,10.8,1012.8,9,525.6,Partially cloudy
220,5/7/2020,5/11/2020,15,Human,34.1334,-117.1833,CASBCC,Unknown,US-CA,4,Group-1,"28426, Highland Avenue, Highland, San Bernardino County, California, 92346, United States",28426%2C%20Highland%20Avenue%2C%20Highland%2C%20San%20Bernardino%20County%2C%20California%2C%2092346%2C%20United%20States,83.4,45.1,64,42.83,0,16.4,1013.8,9.9,516.4,Clear
221,11/10/2020,11/25/2020,4,Human,38.59136,-82.5837,PAMACC,Timber,US-OH,15,Group-2,"2786, Oak Ridge Road, Lawrence Township, Lawrence County, Ohio, 45645, United States",2786%2C%20Oak%20Ridge%20Road%2C%20Lawrence%20Township%2C%20Lawrence%20County%2C%20Ohio%2C%2045645%2C%20United%20States,,,,,,,,,,
223,2/4/2021,2/20/2021,0.1,Human,34.89812,-95.26555,ARAOC,Timber,US-OK,16,Group-2,"Craven Road, Latimer County, Oklahoma, 74578, United States",Craven%20Road%2C%20Latimer%20County%2C%20Oklahoma%2C%2074578%2C%20United%20States,63.3,49,59.1,86.48,0.15,14.4,1011.5,9.3,130,"Rain, Partially cloudy"
229,3/19/2021,3/21/2021,0.35,Undetermined,25.42499,-80.78468,FLFIC,Grass,US-FL,2,Group-1,"Miami-Dade County, Florida, United States",Miami-Dade%20County%2C%20Florida%2C%20United%20States,88.8,77.6,82.5,71.8,0,15,1016.6,9.9,450,Partially cloudy
232,4/24/2020,5/8/2020,4,Unknown,34.0396,-118.58123,CALACC,Unknown,US-CA,,,"Pacific Coast Highway, Topanga, California, 90272-3002, United States",Pacific%20Coast%20Highway%2C%20Topanga%2C%20California%2C%2090272-3002%2C%20United%20States,70.9,58.2,63.7,72.4,0,10.1,1013,8.8,498.8,Partially cloudy
234,6/15/2020,6/17/2020,0.005355765,Human,36.03313,-115.7027,NVLIC,Grass,US-NV,2,Group-1,"Pahrump Valley Highway, Clark County, Nevada, United States",Pahrump%20Valley%20Highway%2C%20Clark%20County%2C%20Nevada%2C%20United%20States,89.5,62,77.3,10.69,0,5.9,1011.4,9.9,436.1,Clear
236,7/7/2020,7/10/2020,4,Natural,48.00811,-90.51053,MNMNCC,Timber,US-MN,3,Group-1,"Cook County, Minnesota, United States",Cook%20County%2C%20Minnesota%2C%20United%20States,53.5,38.5,45,65.91,0.96,15.5,1013.2,9.3,322.6,Rain
238,2/26/2021,3/12/2021,4,Unknown,37.47321024,-119.7222323,CAVNCC,Brush,US-CA,,,"5790, Creel Road, Ponderosa Basin, Mariposa County, California, 95338, United States",5790%2C%20Creel%20Road%2C%20Ponderosa%20Basin%2C%20Mariposa%20County%2C%20California%2C%2095338%2C%20United%20States,91,54.4,73.9,37.67,0,8.6,1012.2,9.9,528.1,Clear
241,2/11/2021,2/21/2021,4,Human,38.7946,-104.8999,COPBC,Grass,US-CO,10,Group-1,"High Drive, El Paso County, Colorado, United States",High%20Drive%2C%20El%20Paso%20County%2C%20Colorado%2C%20United%20States,71.1,45.4,59.7,52.42,0,12.8,1016.3,9.9,453.1,Partially cloudy
249,6/11/2020,6/12/2020,0.763525551,Human,39.918217,-114.716333,NVECC,Grass,US-NV,1,Group-1,"Great Basin Highway, Lages Station, White Pine County, Nevada, United States",Great%20Basin%20Highway%2C%20Lages%20Station%2C%20White%20Pine%20County%2C%20Nevada%2C%20United%20States,69.2,26.1,49.5,33.23,0,20.8,1015.1,9.9,388.8,Clear
250,5/11/2020,5/26/2020,32.8575616,Human,35.87371,-115.22,NVLIC,Grass,US-NV,15,Group-2,"Erie, Clark County, Nevada, United States",Erie%2C%20Clark%20County%2C%20Nevada%2C%20United%20States,89.4,61.9,77.2,10.93,0,6,1011.4,9.9,460.9,Clear
251,9/27/2020,10/1/2020,4.744831002,Unknown,45.7625,-108.4518,MTBDC,Unknown,US-MT,4,Group-1,"2008, Coburn Road, Yellowstone County, Montana, 59101, United States",2008%2C%20Coburn%20Road%2C%20Yellowstone%20County%2C%20Montana%2C%2059101%2C%20United%20States,62.1,43.1,51.2,47.3,0,26.4,1015.5,9.9,336.9,Partially cloudy
252,6/17/2020,7/1/2020,83,Human,35.91634,-121.4352,CALPCC,Grass,US-CA,14,Group-1,"Plaskett Ridge Road, Plaskett, Monterey County, California, United States",Plaskett%20Ridge%20Road%2C%20Plaskett%2C%20Monterey%20County%2C%20California%2C%20United%20States,,,,,,,,,,
255,8/15/2020,10/14/2020,4,Natural,33.39059,-110.4627,AZPHC,Grass-Shrub,US-AZ,60,Group-5,"White Mountain Avenue, Gila County, Arizona, United States",White%20Mountain%20Avenue%2C%20Gila%20County%2C%20Arizona%2C%20United%20States,,,,,,,,,,
256,8/16/2020,9/21/2020,5967.492069,Human,47.26405595,-119.8700216,WAYAC,Unknown,US-WA,36,Group-3,"Martin Road Northwest, Grant County, Washington, United States",Martin%20Road%20Northwest%2C%20Grant%20County%2C%20Washington%2C%20United%20States,72.1,51.1,61.9,32.61,0,18.4,1018.1,9.9,569.9,Clear
257,8/2/2020,8/10/2020,2.421361478,Human,35.87958,-115.2119,NVLIC,Grass,US-NV,8,Group-1,"Clark County, Nevada, United States",Clark%20County%2C%20Nevada%2C%20United%20States,89.5,58.6,76.9,11.12,0,6.9,1011,9.9,482.7,Clear
258,5/18/2020,5/20/2020,4,Human,33.36214,-110.6097,AZPHC,Grass-Shrub,US-AZ,2,Group-1,"Gila County, Arizona, United States",Gila%20County%2C%20Arizona%2C%20United%20States,77,46.4,63.5,22.9,0,9.2,1019.1,9.9,573.7,Clear
264,9/1/2020,9/6/2020,0.00758868,Unknown,41.333,-110.4348,WYCPC,Grass-Shrub,US-WY,5,Group-1,"I 80, Uinta County, Wyoming, 82933, United States",I%2080%2C%20Uinta%20County%2C%20Wyoming%2C%2082933%2C%20United%20States,25,16.7,21.1,72.74,0,24.2,1023.3,9.8,214.4,Partially cloudy
268,7/22/2020,7/27/2020,4,Natural,30.38267,-81.48618,FLFIC,Timber,US-FL,5,Group-1,"13250, Ft Caroline Road, St Johns Bluff Estates, Jacksonville, Duval County, Florida, 32225, United States",13250%2C%20Ft%20Caroline%20Road%2C%20St%20Johns%20Bluff%20Estates%2C%20Jacksonville%2C%20Duval%20County%2C%20Florida%2C%2032225%2C%20United%20States,94.5,72,83,67.2,0,17,1014.9,8.5,491.5,Clear
272,3/11/2021,3/19/2021,7,Human,35.25705,-95.09035,ARAOC,Grass-Shrub,US-OK,8,Group-1,"OK 9, Haskell County, Oklahoma, 74462, United States",OK%209%2C%20Haskell%20County%2C%20Oklahoma%2C%2074462%2C%20United%20States,,,,,,,,,,
274,3/21/2021,3/24/2021,0.1,Human,47.57047697,-93.74467364,MNMNCC,Grass,US-MN,3,Group-1,"Itasca County, Minnesota, United States",Itasca%20County%2C%20Minnesota%2C%20United%20States,50.3,37.3,43.3,64.13,0,17.1,1016.9,9.7,268.8,Partially cloudy
275,11/2/2020,12/11/2020,0.1,Unknown,44.85152,-112.1471,MTDDC,Timber,US-MT,39,Group-3,"Madison County, Montana, United States",Madison%20County%2C%20Montana%2C%20United%20States,55.6,38.7,46.8,50.04,0.03,12.6,1018,9.8,475.2,"Rain, Partially cloudy"
276,2/13/2021,2/22/2021,160.8896715,Human,31.84475,-110.7289,AZTDC,Grass-Shrub,US-AZ,9,Group-1,"Rosemont Junction, Pima County, Arizona, United States",Rosemont%20Junction%2C%20Pima%20County%2C%20Arizona%2C%20United%20States,87.9,57.4,72.6,17.61,0,8.9,1010.4,9.9,582.8,Clear
278,9/2/2020,9/19/2020,4,Human,46.5407855,-108.3748779,MTFPAC,Grass,US-MT,17,Group-2,"572, North Gage Road, Musselshell County, Montana, 59072, United States",572%2C%20North%20Gage%20Road%2C%20Musselshell%20County%2C%20Montana%2C%2059072%2C%20United%20States,55.4,38.1,46.6,53.27,0.01,27.1,1016.2,9.9,175.8,"Rain, Partially cloudy"
281,6/8/2020,6/9/2020,0.036484702,Human,36.4404,-114.9641,NVLIC,Grass,US-NV,1,Group-1,"Frozen Toe Road, Clark County, Nevada, United States",Frozen%20Toe%20Road%2C%20Clark%20County%2C%20Nevada%2C%20United%20States,89.5,58.6,76.9,11.12,0,6.9,1011,9.9,482.7,Clear
283,8/4/2020,8/18/2020,19.05372625,Human,29.17363,-102.9964,,Unknown,MX-CA,,,"former ""motel"", Hot Springs Road, Hot Springs, Brewster County, Texas, United States","former%20""motel""%2C%20Hot%20Springs%20Road%2C%20Hot%20Springs%2C%20Brewster%20County%2C%20Texas%2C%20United%20States",,,,,,,,,,
284,6/15/2020,7/8/2020,4,Natural,37.40153,-107.1118,CODRC,Timber,US-CO,23,Group-2,"County Road 634, Mineral County, Colorado, United States",County%20Road%20634%2C%20Mineral%20County%2C%20Colorado%2C%20United%20States,33.5,15.4,24.2,41.11,0,6.6,1026.8,9.8,230.5,Clear
286,7/17/2020,7/22/2020,4,Human,37.04667,-113.3002,UTCDC,Grass,US-UT,5,Group-1,"Washington County, Utah, United States",Washington%20County%2C%20Utah%2C%20United%20States,47.2,27.7,37.6,31.5,0,7.7,1028.8,9.9,138.5,Clear
287,5/31/2020,6/14/2020,4,Unknown,33.16,-112.6489,AZPDC,Unknown,US-AZ,,,"Buckeye, Maricopa County, Arizona, United States",Buckeye%2C%20Maricopa%20County%2C%20Arizona%2C%20United%20States,64.5,42.1,53.2,32.69,0,7.7,1018,9.9,343.1,Clear
289,5/5/2020,5/10/2020,3.512988948,Human,35.83795,-115.2706,NVLIC,Grass,US-NV,5,Group-1,"Seven Magic Mountains, South Las Vegas Boulevard, Henderson, Clark County, Nevada, United States",Seven%20Magic%20Mountains%2C%20South%20Las%20Vegas%20Boulevard%2C%20Henderson%2C%20Clark%20County%2C%20Nevada%2C%20United%20States,89.3,62,77.1,11.07,0,6.3,1011.4,9.9,460.9,Clear
292,8/24/2020,8/31/2020,4,Natural,34.74034,-113.2135,AZPDC,Unknown,US-AZ,7,Group-1,"Yavapai County, Arizona, United States",Yavapai%20County%2C%20Arizona%2C%20United%20States,75.9,44.4,62.5,24.83,0,15.7,1012,9.9,534.2,Clear
293,6/26/2020,6/26/2020,4,Human,43.299428,-74.217933,NHNEC,Grass,US-NY,0,Group-1,"Ошская область, Кыргызстан",Ошская%20область%2C%20Кыргызстан,,,,,,,,,,
294,10/26/2020,11/9/2020,13694.30253,Unknown,37.47321024,-119.7222323,CARRCC,Unknown,US-CA,,,"5790, Creel Road, Ponderosa Basin, Mariposa County, California, 95338, United States",5790%2C%20Creel%20Road%2C%20Ponderosa%20Basin%2C%20Mariposa%20County%2C%20California%2C%2095338%2C%20United%20States,91,54.4,73.9,37.67,0,8.6,1012.2,9.9,528.1,Clear
297,9/7/2020,10/28/2020,7120.105168,Unknown,48.33591,-118.202,WACAC,Timber,US-WA,51,Group-4,"Inchelium Kettle Falls Road, Inchelium, Ferry County, Washington, United States",Inchelium%20Kettle%20Falls%20Road%2C%20Inchelium%2C%20Ferry%20County%2C%20Washington%2C%20United%20States,66.2,30.8,50.3,53.08,0,10,1018.8,9.9,424.8,Clear
301,3/7/2021,3/17/2021,1,Human,36.70221,-92.1424,MOMOC,Timber,US-MO,10,Group-1,"State Highway KK, Howell County, Missouri, 65637, United States",State%20Highway%20KK%2C%20Howell%20County%2C%20Missouri%2C%2065637%2C%20United%20States,72,53.9,64.2,78.08,0.08,15,1014.2,9.7,319.2,"Rain, Partially cloudy"
304,7/21/2020,9/16/2020,4,Human,46.5407855,-108.3748779,MTMCC,Grass,US-MT,57,Group-4,"572, North Gage Road, Musselshell County, Montana, 59072, United States",572%2C%20North%20Gage%20Road%2C%20Musselshell%20County%2C%20Montana%2C%2059072%2C%20United%20States,55.4,38.1,46.6,53.27,0.01,27.1,1016.2,9.9,175.8,"Rain, Partially cloudy"
306,7/22/2020,8/5/2020,4,Unknown,37.47321024,-119.7222323,CALACC,Timber,US-CA,,,"5790, Creel Road, Ponderosa Basin, Mariposa County, California, 95338, United States",5790%2C%20Creel%20Road%2C%20Ponderosa%20Basin%2C%20Mariposa%20County%2C%20California%2C%2095338%2C%20United%20States,91,54.4,73.9,37.67,0,8.6,1012.2,9.9,528.1,Clear
310,8/7/2020,8/13/2020,10.66461604,Human,40.178333,-110.299444,UTUBC,Unknown,US-UT,6,Group-1,"US 40;SR 6, Duchesne County, Utah, United States",US%2040;SR%206%2C%20Duchesne%20County%2C%20Utah%2C%20United%20States,68.9,52.2,58.7,80.61,0.54,12.2,1007.1,8.2,81.9,"Rain, Overcast"
311,7/15/2020,7/18/2020,0.069572488,Human,33.3329,-110.4553,AZPHC,Grass-Shrub,US-AZ,3,Group-1,"Indian Route 170, Peridot, Gila County, Arizona, 85542, United States",Indian%20Route%20170%2C%20Peridot%2C%20Gila%20County%2C%20Arizona%2C%2085542%2C%20United%20States,,,,,,,,,,
312,6/24/2020,7/8/2020,23,Human,44.44703,-105.4584,WYCPC,Grass,US-WY,,,"WY 59, Campbell County, Wyoming, United States",WY%2059%2C%20Campbell%20County%2C%20Wyoming%2C%20United%20States,61.1,35,46.9,57.67,0,23,1015.4,9.9,396.6,Partially cloudy
316,7/21/2020,7/24/2020,14.47517494,Human,45.2422,-115.5305,IDPAC,Timber,US-ID,3,Group-1,"Rattlesnake Peak Trail, Valley County, Idaho, United States",Rattlesnake%20Peak%20Trail%2C%20Valley%20County%2C%20Idaho%2C%20United%20States,56.9,33.2,46.9,52.19,0,13.9,1017.9,9.9,324.3,Partially cloudy
317,8/10/2020,8/18/2020,4,Human,47.10974,-119.3742,WACWC,Unknown,US-WA,8,Group-1,"1484, Road E.5 Northeast, Grant County, Washington, 98837, United States",1484%2C%20Road%20E.5%20Northeast%2C%20Grant%20County%2C%20Washington%2C%2098837%2C%20United%20States,73.9,49.1,62.4,35.73,0,10.4,1018.5,9.9,569.9,Clear
321,8/30/2020,9/3/2020,0.046931825,Human,35.91423,-115.1884,NVLIC,Grass-Shrub,US-NV,4,Group-1,"Clark County, Nevada, United States",Clark%20County%2C%20Nevada%2C%20United%20States,89.5,58.6,76.9,11.12,0,6.9,1011,9.9,482.7,Clear
322,7/27/2020,9/11/2020,0.1,Natural,41.8067,-119.666769,CASIFC,Grass-Shrub,US-NV,46,Group-4,"Washoe County, Nevada, United States",Washoe%20County%2C%20Nevada%2C%20United%20States,,,,,,,,,,
324,9/7/2020,10/22/2020,1632,Human,46.50879,-116.3869,IDGVC,Unknown,US-ID,45,Group-4,"Cavendish Road, Clearwater County, Idaho, 83541, United States",Cavendish%20Road%2C%20Clearwater%20County%2C%20Idaho%2C%2083541%2C%20United%20States,64,48.2,55.3,48.38,0,15.9,1019.3,9.9,297,Partially cloudy
326,6/23/2020,6/26/2020,1090,Natural,27.13334,-97.37183,TXTIC,Grass-Shrub,US-TX,3,Group-1,"Kenedy, Texas, United States",Kenedy%2C%20Texas%2C%20United%20States,86.3,74,79.7,76.4,0.05,14.3,1008.8,8.6,247.5,"Rain, Partially cloudy"
329,5/26/2020,6/2/2020,0.203632236,Human,35.87266,-115.2332,NVLIC,Grass,US-NV,7,Group-1,"South Las Vegas Boulevard, Henderson, Clark County, Nevada, 89026, United States",South%20Las%20Vegas%20Boulevard%2C%20Henderson%2C%20Clark%20County%2C%20Nevada%2C%2089026%2C%20United%20States,89.3,62,77.1,11.07,0,6.3,1011.4,9.9,460.9,Clear
330,3/6/2021,3/20/2021,1,Unknown,36.94331,-92.07699,MOMOC,Unknown,US-MO,,,"Howell County, Missouri, United States",Howell%20County%2C%20Missouri%2C%20United%20States,66.9,47.9,59.3,89.33,1.36,14.8,1009.7,7.7,75.1,"Rain, Partially cloudy"
331,9/21/2020,9/24/2020,4,Human,44.03513101,-103.0360372,SDGPC,Timber,US-SD,3,Group-1,"Pennington County, South Dakota, United States",Pennington%20County%2C%20South%20Dakota%2C%20United%20States,61.8,33.3,47.4,59.35,0.07,20.1,1017,9.8,336,"Rain, Partially cloudy"
332,9/7/2020,9/8/2020,4,Human,35.09114,-98.65868,ARAOC,Unknown,US-OK,1,Group-1,"Kiowa County, Oklahoma, United States",Kiowa%20County%2C%20Oklahoma%2C%20United%20States,64.1,47.7,59.2,85.12,0.18,15.4,1012,9.4,213.4,"Rain, Partially cloudy"
335,3/8/2021,3/31/2021,1,Human,36.61083,-84.35006,KYKIC,Timber,US-KY,23,Group-2,"Fd-6279, McCreary County, Kentucky, United States",Fd-6279%2C%20McCreary%20County%2C%20Kentucky%2C%20United%20States,72.5,61.1,66.6,89.59,1.45,11.3,1009.5,8.7,233.6,"Rain, Partially cloudy"
337,6/13/2020,6/24/2020,0.06557491,Natural,40.84843,-117.6173,NVCNC,Timber,US-NV,11,Group-1,"Humboldt County, Nevada, United States",Humboldt%20County%2C%20Nevada%2C%20United%20States,42.2,27.5,34.6,62.58,0,9.9,1026.3,9.9,171.8,Clear
338,7/19/2020,7/20/2020,9.036197058,Natural,37.059973,-102.566814,COPBC,Unknown,US-CO,1,Group-1,"US 287;US 385, Baca County, Colorado, United States",US%20287;US%20385%2C%20Baca%20County%2C%20Colorado%2C%20United%20States,57.2,35.2,46,71.16,0.02,8.4,1017.4,9.9,366.6,"Rain, Partially cloudy"
341,7/4/2020,7/6/2020,0.066107383,Human,36.01137,-114.9224,NVLIC,Grass-Shrub,US-NV,2,Group-1,"River Mountains Loop Trail, Railroad Pass, Henderson, Clark County, Nevada, 89002, United States",River%20Mountains%20Loop%20Trail%2C%20Railroad%20Pass%2C%20Henderson%2C%20Clark%20County%2C%20Nevada%2C%2089002%2C%20United%20States,89.4,61.4,77.1,10.93,0,5.4,1011.3,9.9,621.7,Clear
342,3/11/2021,3/18/2021,1,Human,37.64308636,-79.76722545,VAVIC,Timber,US-VA,7,Group-1,"12711, Narrow Passage Road, Eagle Rock, Botetourt County, Virginia, 24085, United States",12711%2C%20Narrow%20Passage%20Road%2C%20Eagle%20Rock%2C%20Botetourt%20County%2C%20Virginia%2C%2024085%2C%20United%20States,85.1,69.2,75.2,79.43,0.55,14.4,1020.2,9,420.2,"Rain, Partially cloudy"
347,8/24/2020,9/7/2020,946.6801929,Unknown,39.965167,-121.582333,CABTCC,Unknown,US-CA,,,"Butte County, California, United States",Butte%20County%2C%20California%2C%20United%20States,88.9,61.9,75.2,31.67,0,8.5,1012.7,9.8,538.9,Clear
352,9/8/2020,10/9/2020,132.4262977,Human,47.15501,-121.8583,WAPSC,Unknown,US-WA,31,Group-3,"Southeast Enumclaw Chinook Pass Highway, King County, Washington, United States",Southeast%20Enumclaw%20Chinook%20Pass%20Highway%2C%20King%20County%2C%20Washington%2C%20United%20States,55.3,44.3,48.1,78.65,0.18,7.7,1023.4,7,387.2,"Rain, Partially cloudy"
353,3/16/2021,3/18/2021,0.33,Human,31.55494,-92.59896,LALIC,Timber,US-LA,2,Group-1,"Highway 123, Grant Parish, Louisiana, 71423, United States",Highway%20123%2C%20Grant%20Parish%2C%20Louisiana%2C%2071423%2C%20United%20States,79.1,70.2,75.4,87.4,0.62,11.7,1009.3,6.3,165.7,"Rain, Partially cloudy"
356,9/5/2020,9/9/2020,4,Human,46.5407855,-108.3748779,MTRBAC,Grass,US-MT,4,Group-1,"572, North Gage Road, Musselshell County, Montana, 59072, United States",572%2C%20North%20Gage%20Road%2C%20Musselshell%20County%2C%20Montana%2C%2059072%2C%20United%20States,55.4,38.1,46.6,53.27,0.01,27.1,1016.2,9.9,175.8,"Rain, Partially cloudy"
358,8/16/2020,9/4/2020,48869.15997,Unknown,36.563,-121.640333,CABECC,Unknown,US-CA,19,Group-2,"Pine Canyon Road, Monterey County, California, United States",Pine%20Canyon%20Road%2C%20Monterey%20County%2C%20California%2C%20United%20States,76.8,48.6,63.4,53.05,0,11.7,1014.5,9.3,537.7,Clear
359,9/18/2020,9/24/2020,11.40376691,Human,36.9903,-112.9748,UTCDC,Unknown,US-AZ,6,Group-1,"West Township Avenue, Colorado City, Mohave County, Arizona, 86021, United States",West%20Township%20Avenue%2C%20Colorado%20City%2C%20Mohave%20County%2C%20Arizona%2C%2086021%2C%20United%20States,78.8,38.3,60.7,31.69,0,17.8,1018.9,9.9,578.6,Clear
361,8/16/2020,8/30/2020,589367.5568,Natural,39.76536,-122.6734,CAMNFC,Grass-Shrub,US-CA,,,"County Road 313, Glenn County, California, United States",County%20Road%20313%2C%20Glenn%20County%2C%20California%2C%20United%20States,90,64,76.2,27.95,0,21.9,1013,13.6,442.3,Clear
362,7/13/2020,7/29/2020,0.02801851,Natural,39.24994,-112.05,UTRFC,Timber,US-UT,16,Group-2,"Millard County, Utah, United States",Millard%20County%2C%20Utah%2C%20United%20States,76.2,35.6,57.5,22.9,0,10.7,1010.5,9.9,393,Clear
365,8/25/2020,8/27/2020,4,Human,34.99549,-96.63158,ARAOC,Grass,US-OK,2,Group-1,"Seminole County, Oklahoma, United States",Seminole%20County%2C%20Oklahoma%2C%20United%20States,63.6,52.6,57.9,77.83,0.66,17.9,1013.9,9.7,196.5,"Rain, Partially cloudy"
367,8/24/2020,9/1/2020,0.082230023,Natural,36.10345,-115.5518,NVLIC,Grass-Shrub,US-NV,8,Group-1,"Clark County, Nevada, United States",Clark%20County%2C%20Nevada%2C%20United%20States,89.5,58.6,76.9,11.12,0,6.9,1011,9.9,482.7,Clear
373,10/10/2020,10/11/2020,4,Unknown,34.03454,-118.70581,CALACC,Grass-Shrub,US-CA,1,Group-1,"Pepperdine University - Malibu Campus, Pacific Coast Highway, Malibu, California, 90263, United States",Pepperdine%20University%20-%20Malibu%20Campus%2C%20Pacific%20Coast%20Highway%2C%20Malibu%2C%20California%2C%2090263%2C%20United%20States,74.7,58.5,65.6,65.68,0,10.8,1012.8,9,525.6,Partially cloudy
375,10/4/2020,10/11/2020,2.701833847,Human,39.86442,-119.6273,NVSFC,Grass,US-NV,7,Group-1,"Washoe County, Nevada, United States",Washoe%20County%2C%20Nevada%2C%20United%20States,,,,,,,,,,
376,7/17/2020,7/22/2020,0.007390618,Human,36.26073,-115.3299,NVLIC,Grass,US-NV,5,Group-1,"North Shaumber Road, Las Vegas, Clark County, Nevada, 89166, United States",North%20Shaumber%20Road%2C%20Las%20Vegas%2C%20Clark%20County%2C%20Nevada%2C%2089166%2C%20United%20States,90.1,62.7,77.7,10.19,0,7.5,1011.4,9.9,527.7,Clear
377,11/9/2020,11/23/2020,367.251116,Unknown,35.60705,-83.81931,TNTNC,Grass,US-TN,,,"Cades Cove Loop Road, Cades Cove, Blount County, Tennessee, United States",Cades%20Cove%20Loop%20Road%2C%20Cades%20Cove%2C%20Blount%20County%2C%20Tennessee%2C%20United%20States,68.5,63.4,65.4,93.05,1.12,11.5,1011,7.7,50.6,"Rain, Partially cloudy"
378,8/27/2020,8/28/2020,4,Human,39.1,-120.7284,CAGVCC,Grass-Shrub,US-CA,1,Group-1,"32099, Forest Hill Road, Placer County, California, 95631, United States",32099%2C%20Forest%20Hill%20Road%2C%20Placer%20County%2C%20California%2C%2095631%2C%20United%20States,71.7,55,63.6,27.59,0,9.7,1013.6,9.9,529.5,Clear
379,1/24/2020,2/7/2020,9.8,Unknown,44.37727,-106.6538,WYCPC,Unknown,US-WY,,,"87, Kumor Road, Johnson County, Wyoming, 82834, United States",87%2C%20Kumor%20Road%2C%20Johnson%20County%2C%20Wyoming%2C%2082834%2C%20United%20States,56.9,35,45.1,58.84,0.08,19.6,1015.6,9.9,341.5,"Rain, Partially cloudy"
380,7/29/2020,8/5/2020,4,Natural,44.51284,-119.4388,ORJDCC,Unknown,US-OR,7,Group-1,"Grant County, Oregon, United States",Grant%20County%2C%20Oregon%2C%20United%20States,63,47.6,53.3,62.61,0.04,8.1,1021,9.8,298.1,"Rain, Partially cloudy"
382,7/20/2020,8/10/2020,2.794007947,Natural,36.01167,-115.4316,NVLIC,Grass,US-NV,21,Group-2,"Late Night Trailhead Parking, Badger Pass (Easy), Blue Diamond, Clark County, Nevada, 89004, United States",Late%20Night%20Trailhead%20Parking%2C%20Badger%20Pass%20(Easy)%2C%20Blue%20Diamond%2C%20Clark%20County%2C%20Nevada%2C%2089004%2C%20United%20States,89.5,62.2,77.3,10.72,0,5.9,1011.4,9.9,577.6,Clear
383,7/17/2020,7/31/2020,4,Natural,38.41426,-97.8423025,COPBC,Timber,US-KS,14,Group-1,"McPherson County, Kansas, United States",McPherson%20County%2C%20Kansas%2C%20United%20States,66,47.3,56.4,48.18,0.05,20.1,1016.2,9.9,407,"Rain, Partially cloudy"
386,5/10/2020,5/13/2020,4,Human,33.30728,-110.4168,AZPHC,Grass-Shrub,US-AZ,3,Group-1,"Graham County, Arizona, United States",Graham%20County%2C%20Arizona%2C%20United%20States,86,52.1,71.6,19.93,0,13.9,1010.4,9.9,575.9,Clear
391,6/16/2020,6/19/2020,0.309023594,Human,40.275861,-109.895639,UTUBC,Unknown,US-UT,3,Group-1,"Utah, 84026, United States",Utah%2C%2084026%2C%20United%20States,64.1,34.1,50.1,47.38,0,10.3,1015.8,9.9,412.5,Partially cloudy
393,8/18/2020,9/14/2020,328363.0942,Natural,40.12551,-123.0731,CAMNFC,Brush,US-CA,27,Group-2,"Trinity County, California, United States",Trinity%20County%2C%20California%2C%20United%20States,90,65.9,75.7,31.11,0,16.1,1012.9,9.9,531.9,Clear
394,12/8/2020,12/14/2020,4,Human,34.45602,-112.3788,AZPDC,Timber,US-AZ,6,Group-1,"4893, East Walker Road, Walker, Yavapai County, Arizona, 86303, United States",4893%2C%20East%20Walker%20Road%2C%20Walker%2C%20Yavapai%20County%2C%20Arizona%2C%2086303%2C%20United%20States,76.2,44.9,62.9,24.6,0,15.8,1012.2,9.9,534.2,Clear
395,9/24/2020,9/24/2020,4,Human,44.45982,-109.5489,WYCDC,Grass-Shrub,US-WY,0,Group-1,"2615, North Fork Highway, Park County, Wyoming, 82414, United States",2615%2C%20North%20Fork%20Highway%2C%20Park%20County%2C%20Wyoming%2C%2082414%2C%20United%20States,48.8,34.9,41.8,65.82,0.36,14,1017.8,9.9,231.5,"Snow, Partially cloudy"
397,7/27/2020,8/10/2020,143886.5336,Natural,41.19449,-123.4578,CANCIC,Timber,US-CA,,,"Humboldt County, California, United States",Humboldt%20County%2C%20California%2C%20United%20States,56.8,48.4,51.1,94.17,0,15,1020.5,8.2,558.5,Partially cloudy
398,7/22/2020,8/17/2020,4,Unknown,37.5943,-80.24779,VAVIC,Timber,US-VA,26,Group-2,"Hatcher Road, Craig County, Virginia, 24131, United States",Hatcher%20Road%2C%20Craig%20County%2C%20Virginia%2C%2024131%2C%20United%20States,80.5,60.1,68.7,78.58,0.27,15,1010.4,9.3,311.3,"Rain, Partially cloudy"
402,6/3/2020,6/8/2020,530.5270373,Natural,41.65477,-113.1956,UTNUC,Grass,US-UT,5,Group-1,"Box Elder County, Utah, United States",Box%20Elder%20County%2C%20Utah%2C%20United%20States,67.8,39.2,54.8,47.7,0,12.3,1014.6,9.9,426.4,Clear
403,8/21/2020,8/23/2020,4,Unknown,35.31761,-96.54798,ARAOC,Unknown,US-OK,2,Group-1,"Ns363 Road, Seminole County, Oklahoma, United States",Ns363%20Road%2C%20Seminole%20County%2C%20Oklahoma%2C%20United%20States,63.4,52.4,58,79.13,0.69,16.1,1013.8,9.7,196.5,"Rain, Partially cloudy"
404,8/17/2020,8/31/2020,27.61016048,Unknown,40.041655,-121.664822,CABTCC,Unknown,US-CA,,,"Tehama County, California, United States",Tehama%20County%2C%20California%2C%20United%20States,89.9,64.8,76.2,28.54,0,20.6,1013,9.9,501.1,Clear
405,7/23/2020,7/26/2020,21,Human,43.67613,-106.649,WYCPC,Grass,US-WY,3,Group-1,"I 25;US 87, Johnson County, Wyoming, United States",I%2025;US%2087%2C%20Johnson%20County%2C%20Wyoming%2C%20United%20States,,,,,,,,,,
412,2/28/2020,2/28/2020,4,Human,34.04435,-118.88895,CALACC,Grass-Shrub,US-CA,0,Group-1,"4281, Encinal Canyon Road, Malibu, California, 90265, United States",4281%2C%20Encinal%20Canyon%20Road%2C%20Malibu%2C%20California%2C%2090265%2C%20United%20States,69.9,52,61.1,76.17,0,10.3,1013.5,7.7,541.9,Clear
415,5/22/2020,5/27/2020,4,Human,39.12571,-105.1286,COPBC,Grass-Shrub,US-CO,5,Group-1,"Forest Service 343, Teller County, Colorado, United States",Forest%20Service%20343%2C%20Teller%20County%2C%20Colorado%2C%20United%20States,49.6,30.5,41,76.3,0.01,22.7,1019.2,9.2,344.8,"Rain, Partially cloudy"
417,7/21/2020,7/24/2020,1.541854078,Natural,37.33164,-108.4119,CODRC,Grass,US-CO,3,Group-1,"Mesa Verde 1, Montezuma County, Colorado, 81328, United States",Mesa%20Verde%201%2C%20Montezuma%20County%2C%20Colorado%2C%2081328%2C%20United%20States,70.5,30.3,50.6,49.59,0,19.7,1015.2,9.9,478.6,Partially cloudy
418,7/5/2020,7/7/2020,4,Human,35.6255,-97.99436,ARAOC,Grass,US-OK,2,Group-1,"Black Kettle Boulevard, Concho, El Reno, Canadian County, Oklahoma, 73022, United States",Black%20Kettle%20Boulevard%2C%20Concho%2C%20El%20Reno%2C%20Canadian%20County%2C%20Oklahoma%2C%2073022%2C%20United%20States,65.2,50.1,57.7,67.24,0.29,21.4,1014.3,9.4,390.4,"Rain, Partially cloudy"
419,9/13/2020,9/14/2020,4,Human,45.253783,-69.445469,NHNEC,Timber,US-ME,1,Group-1,"319, Steward Road, Monson, Maine, 04464, United States",319%2C%20Steward%20Road%2C%20Monson%2C%20Maine%2C%2004464%2C%20United%20States,59.6,45.1,51.9,38.62,0,10.4,1010.7,9.9,343.8,Partially cloudy
421,5/9/2020,5/9/2020,0.370451784,Human,35.94007,-115.6569,NVLIC,Grass,US-NV,0,Group-1,"Clark County, Nevada, United States",Clark%20County%2C%20Nevada%2C%20United%20States,89.5,58.6,76.9,11.12,0,6.9,1011,9.9,482.7,Clear
422,6/9/2020,6/11/2020,1.1,Human,35.04942,-98.26634,ARAOC,Timber,US-OK,2,Group-1,"Anadarko Municipal Airport, Walter Way, Anadarko, Caddo County, Oklahoma, 73005, United States",Anadarko%20Municipal%20Airport%2C%20Walter%20Way%2C%20Anadarko%2C%20Caddo%20County%2C%20Oklahoma%2C%2073005%2C%20United%20States,67.4,50.4,58.8,70.94,0.47,26.4,1014.2,9.9,445.1,"Rain, Partially cloudy"
424,1/8/2020,1/12/2020,4,Human,36.40574,-96.91376,ARAOC,Grass,US-OK,4,Group-1,"OK 15, Pawnee County, Oklahoma, United States",OK%2015%2C%20Pawnee%20County%2C%20Oklahoma%2C%20United%20States,68,47.4,59.1,68.91,0.75,18.1,1013.7,9.5,389.6,"Rain, Partially cloudy"
425,8/9/2020,8/23/2020,136.5928345,Human,37.47321024,-119.7222323,CAFICC,Unknown,US-CA,,,"5790, Creel Road, Ponderosa Basin, Mariposa County, California, 95338, United States",5790%2C%20Creel%20Road%2C%20Ponderosa%20Basin%2C%20Mariposa%20County%2C%20California%2C%2095338%2C%20United%20States,91,54.4,73.9,37.67,0,8.6,1012.2,9.9,528.1,Clear
427,6/28/2020,7/3/2020,4,Human,32.8919,-112.0386,AZTDC,Unknown,US-AZ,5,Group-1,"44206, West Padilla Road, Pinal County, Arizona, 85138, United States",44206%2C%20West%20Padilla%20Road%2C%20Pinal%20County%2C%20Arizona%2C%2085138%2C%20United%20States,91.6,61.2,78.4,18.42,0,10.1,1010.5,9.9,517,Clear
428,5/28/2020,5/28/2020,0.1,Human,34.10317,-109.613,AZFDC,Timber,US-AZ,0,Group-1,"Apache County, Arizona, United States",Apache%20County%2C%20Arizona%2C%20United%20States,73.1,28.1,52.6,41.66,0,16.4,1013.2,9.9,566.3,Clear
430,3/6/2021,3/8/2021,0.444808,Human,40.72304,-113.2888,UTNUC,Grass-Shrub,US-UT,2,Group-1,"Wendover Cut-off, Tooele County, Utah, United States",Wendover%20Cut-off%2C%20Tooele%20County%2C%20Utah%2C%20United%20States,83,56.9,70.7,24.22,0,20,1010.6,9.9,268.7,Clear
435,10/4/2020,10/5/2020,4,Human,39.1409,-105.13,COPBC,Grass,US-CO,1,Group-1,"Forest Service 343A, Teller County, Colorado, United States",Forest%20Service%20343A%2C%20Teller%20County%2C%20Colorado%2C%20United%20States,49.7,30.5,41,76.19,0.01,22.7,1019.2,9.2,344.8,"Rain, Partially cloudy"
438,3/14/2021,3/22/2021,8.51817466,Human,29.11693,-103.6698,,Grass-Shrub,MX-CH,8,Group-1,"Manuel Benavides, Chihuahua, México",Manuel%20Benavides%2C%20Chihuahua%2C%20México,84.2,67.1,72.2,81.37,1.04,13.9,1015.3,9.4,380.3,"Rain, Partially cloudy"
439,8/21/2020,9/24/2020,19506,Natural,33.16917,-110.4483,AZPHC,Grass-Shrub,US-AZ,34,Group-3,"County Road 574, Pinal County, Arizona, United States",County%20Road%20574%2C%20Pinal%20County%2C%20Arizona%2C%20United%20States,90.9,61.7,77.9,18.08,0,9.5,1011.1,9.9,369.8,Clear
440,8/17/2020,12/7/2020,285.0376773,Natural,39.7485,-121.713333,CABTCC,Timber,US-CA,112,Group-5,"Butte County, California, United States",Butte%20County%2C%20California%2C%20United%20States,88.9,61.9,75.2,31.67,0,8.5,1012.7,9.8,538.9,Clear
441,8/17/2020,8/31/2020,0.002972638,Unknown,39.890483,-121.752683,CABTCC,Unknown,US-CA,,,"8754, Cohasset Road, Cohasset, Butte County, California, 95973, United States",8754%2C%20Cohasset%20Road%2C%20Cohasset%2C%20Butte%20County%2C%20California%2C%2095973%2C%20United%20States,89.5,62.9,75.9,28.48,0,18.1,1012.9,18.1,530.5,Clear
443,6/15/2020,6/29/2020,434.5502618,Unknown,35.179611,-120.697172,CASLCC,Unknown,US-CA,,,"Gragg Canyon Road, Sunset Palisades, San Luis Obispo County, California, 39424, United States",Gragg%20Canyon%20Road%2C%20Sunset%20Palisades%2C%20San%20Luis%20Obispo%20County%2C%20California%2C%2039424%2C%20United%20States,79.2,48.7,62.3,62.96,0,10.1,1013,9,521.9,Clear
445,6/2/2020,6/10/2020,4,Human,33.53549,-112.3048,AZPDC,Unknown,US-AZ,8,Group-1,"West Glendale Avenue, Glendale, Maricopa County, Arizona, 8551, United States",West%20Glendale%20Avenue%2C%20Glendale%2C%20Maricopa%20County%2C%20Arizona%2C%208551%2C%20United%20States,91.9,64.3,79.6,16.04,0,9.3,1009.8,9.9,437.2,Clear
446,7/23/2020,8/2/2020,1101.197505,Natural,40.6442,-118.018,NVCNC,Grass-Shrub,US-NV,10,Group-1,"Pershing County, Nevada, United States",Pershing%20County%2C%20Nevada%2C%20United%20States,78,29.9,56.9,26.98,0,18.5,1016.1,9.9,603.4,Clear
447,6/3/2020,6/3/2020,0.140549444,Human,36.44294,-114.9693,NVLIC,Grass,US-NV,0,Group-1,"Frozen Toe Road, Clark County, Nevada, United States",Frozen%20Toe%20Road%2C%20Clark%20County%2C%20Nevada%2C%20United%20States,89.5,58.6,76.9,11.12,0,6.9,1011,9.9,482.7,Clear
450,5/12/2020,5/20/2020,4,Human,33.36138,-110.426,AZPHC,Grass-Shrub,US-AZ,8,Group-1,"Graham County, Arizona, 85542, United States",Graham%20County%2C%20Arizona%2C%2085542%2C%20United%20States,86,52.1,71.6,19.93,0,13.9,1010.4,9.9,575.9,Clear
452,3/13/2021,3/26/2021,2,Unknown,47.57047697,-93.74467364,MNMNCC,Grass,US-MN,13,Group-1,"Itasca County, Minnesota, United States",Itasca%20County%2C%20Minnesota%2C%20United%20States,50.3,37.3,43.3,64.13,0,17.1,1016.9,9.7,268.8,Partially cloudy
454,8/31/2020,9/1/2020,0.206779546,Human,36.68947,-114.5037,NVLIC,Grass-Shrub,US-NV,1,Group-1,"Las Vegas Freeway, Moapa Valley, Clark County, Nevada, United States",Las%20Vegas%20Freeway%2C%20Moapa%20Valley%2C%20Clark%20County%2C%20Nevada%2C%20United%20States,89.7,59.2,77,10.89,0,6.8,1011.1,9.9,527.7,Clear
455,3/9/2020,3/11/2020,45.2,Human,41.03948186,-87.10185229,INIIC,Unknown,US-IN,2,Group-1,"200N, Jasper County, Indiana, 47978, United States",200N%2C%20Jasper%20County%2C%20Indiana%2C%2047978%2C%20United%20States,,,,,,,,,,
456,8/17/2020,8/31/2020,6061.253131,Natural,39.54481,-122.7428,CAMNFC,Grass-Shrub,US-CA,,,"Forest Route 20N08, Glenn County, California, United States",Forest%20Route%2020N08%2C%20Glenn%20County%2C%20California%2C%20United%20States,89.5,63.9,76.1,28.58,0,14.5,1012.9,13.9,451.5,Clear
457,7/25/2020,8/10/2020,1.557925024,Human,36.2528,-115.6469,NVLIC,Grass-Shrub,US-NV,16,Group-2,"Cathedral Rock Trail, Mount Charleston, Clark County, Nevada, United States",Cathedral%20Rock%20Trail%2C%20Mount%20Charleston%2C%20Clark%20County%2C%20Nevada%2C%20United%20States,87.7,57.1,74.5,10.01,0,7,1011.5,9.9,467,Clear
459,9/8/2020,9/9/2020,4.347045143,Human,42.37275,-112.4576,IDEIC,Unknown,US-ID,1,Group-1,"10800W, Oneida County, Idaho, United States",10800W%2C%20Oneida%20County%2C%20Idaho%2C%20United%20States,64.1,37.1,50,49.69,0,12.8,1015.7,9.9,480.4,Partially cloudy
461,6/7/2020,6/21/2020,4,Unknown,33.54541433,-111.45097,AZTDC,Unknown,US-AZ,,,"Apache Trail, Maricopa County, Arizona, United States",Apache%20Trail%2C%20Maricopa%20County%2C%20Arizona%2C%20United%20States,90.2,67.8,80.1,16.3,0,9,1009.5,9.9,502.7,Clear
462,1/13/2021,1/27/2021,1,Unknown,37.86,-91.9222,MOMOC,Unknown,US-MO,,,"USFS 1592, Phelps County, Missouri, 65550, United States",USFS%201592%2C%20Phelps%20County%2C%20Missouri%2C%2065550%2C%20United%20States,,,,,,,,,,
463,7/15/2020,9/2/2020,4,Natural,46.5407855,-108.3748779,MTNCA,Grass-Shrub,US-MT,49,Group-4,"572, North Gage Road, Musselshell County, Montana, 59072, United States",572%2C%20North%20Gage%20Road%2C%20Musselshell%20County%2C%20Montana%2C%2059072%2C%20United%20States,55.4,38.1,46.6,53.27,0.01,27.1,1016.2,9.9,175.8,"Rain, Partially cloudy"
464,9/27/2020,9/27/2020,4,Human,44.03513101,-103.0360372,SDGPC,Grass,US-SD,0,Group-1,"Pennington County, South Dakota, United States",Pennington%20County%2C%20South%20Dakota%2C%20United%20States,61.8,33.3,47.4,59.35,0.07,20.1,1017,9.8,336,"Rain, Partially cloudy"
465,9/12/2020,9/26/2020,303.4988348,Unknown,46.62252,-117.3332,WANEC,Unknown,US-WA,,,"Whitman County, Washington, United States",Whitman%20County%2C%20Washington%2C%20United%20States,67.9,51.9,58.6,54.34,0,15.6,1019.8,9.9,380.5,Partially cloudy
466,11/18/2020,12/8/2020,4,Human,43.84427,-103.1931,SDGPC,Unknown,US-SD,20,Group-2,"24519, 2nd Street, Hermosa, Custer County, South Dakota, 57744, United States",24519%2C%202nd%20Street%2C%20Hermosa%2C%20Custer%20County%2C%20South%20Dakota%2C%2057744%2C%20United%20States,58.8,32.3,46.3,60.16,0.05,17.3,1016.9,9.8,365.7,"Rain, Partially cloudy"
468,12/20/2020,12/28/2020,4,Human,33.36444,-110.4606,AZPHC,Grass-Shrub,US-AZ,8,Group-1,"29, Tufa Stone Lane, Gila County, Arizona, 85550, United States",29%2C%20Tufa%20Stone%20Lane%2C%20Gila%20County%2C%20Arizona%2C%2085550%2C%20United%20States,,,,,,,,,,
469,3/17/2021,3/31/2021,0.59,Human,45.36282,-108.5627,MTBDC,Grass,US-MT,14,Group-1,"Pryor Gap Road, Pryor, Big Horn County, Montana, United States",Pryor%20Gap%20Road%2C%20Pryor%2C%20Big%20Horn%20County%2C%20Montana%2C%20United%20States,59,40.7,48.5,49.45,0,23.2,1016,9.9,318.9,Partially cloudy
470,6/28/2020,6/28/2020,0.2,Natural,46.75896,-105.3122,MTMCC,Grass,US-MT,0,Group-1,"Prairie County, Montana, 59349, United States",Prairie%20County%2C%20Montana%2C%2059349%2C%20United%20States,63.5,36,48.8,45.54,0.03,13.7,1016.1,9.9,345.8,"Rain, Partially cloudy"
471,7/6/2020,7/11/2020,4,Human,33.12754,-110.1138,AZPHC,Grass-Shrub,US-AZ,5,Group-1,"Indian Route 105, Bylas, Graham County, Arizona, United States",Indian%20Route%20105%2C%20Bylas%2C%20Graham%20County%2C%20Arizona%2C%20United%20States,86,52.1,71.6,19.93,0,13.9,1010.4,9.9,575.9,Clear
473,8/23/2020,11/23/2020,156.864,Human,39.08988,-105.4903,COPBC,Timber,US-CO,92,Group-5,"2998, County Road 31, Tarryall, Park County, Colorado, 80827, United States",2998%2C%20County%20Road%2031%2C%20Tarryall%2C%20Park%20County%2C%20Colorado%2C%2080827%2C%20United%20States,46,30.7,36.6,79.88,0.06,15.7,1018.8,8.2,359.6,"Snow, Overcast"
475,9/23/2020,10/7/2020,0.436867083,Unknown,42.86251,-106.5368,WYCPC,Grass-Shrub,US-WY,,,"Zero Road, Natrona County, Wyoming, United States",Zero%20Road%2C%20Natrona%20County%2C%20Wyoming%2C%20United%20States,56.9,28.1,43,66.54,0.04,24.2,1016.1,9.9,296.1,"Rain, Partially cloudy"
477,11/19/2020,12/3/2020,1,Human,37.14188632,-83.96504944,KYKIC,Brush,US-KY,,,"Nineva Road, Laurel County, Kentucky, 40741, United States",Nineva%20Road%2C%20Laurel%20County%2C%20Kentucky%2C%2040741%2C%20United%20States,71,62.6,66.4,85.11,0.9,15.7,1009,9,156,"Rain, Partially cloudy"
478,5/5/2020,5/23/2020,23,Human,37.32783,-107.6449,CODRC,Timber,US-CO,18,Group-2,"4015, CR 245, La Plata County, Colorado, United States",4015%2C%20CR%20245%2C%20La%20Plata%20County%2C%20Colorado%2C%20United%20States,64.1,29.7,47.7,52.73,0.07,22.9,1016.8,9.8,396.6,"Rain, Partially cloudy"
479,11/20/2020,11/23/2020,4,Unknown,39.55127,-82.05943,PAMACC,Timber,US-OH,3,Group-1,"Burr Oak Road, Perry County, Ohio, 45732, United States",Burr%20Oak%20Road%2C%20Perry%20County%2C%20Ohio%2C%2045732%2C%20United%20States,73.6,60.6,66.8,85.4,0.47,15.5,1006.4,9.4,258.6,"Rain, Partially cloudy"
480,6/13/2020,6/13/2020,4,Human,39.0246,-120.7207,CAGVCC,Slash,US-CA,0,Group-1,"Mosquito Ridge Road, Placer County, California, United States",Mosquito%20Ridge%20Road%2C%20Placer%20County%2C%20California%2C%20United%20States,70.9,52.3,61.8,28.8,0,9.6,1014.2,9.9,525.9,Clear
483,5/6/2020,5/8/2020,4,Human,33.36674,-110.4471,AZPHC,Grass-Shrub,US-AZ,2,Group-1,"Graham County, Arizona, United States",Graham%20County%2C%20Arizona%2C%20United%20States,86,52.1,71.6,19.93,0,13.9,1010.4,9.9,575.9,Clear
485,11/17/2020,12/15/2020,1.834283411,Human,30.36215,-84.27321,FLFIC,Grass,US-FL,28,Group-2,"Munson Hills Off-Road Bicycle Trail, Leon County, Florida, 32305-1200, United States",Munson%20Hills%20Off-Road%20Bicycle%20Trail%2C%20Leon%20County%2C%20Florida%2C%2032305-1200%2C%20United%20States,,,,,,,,,,
486,8/1/2020,8/11/2020,1962.317674,Unknown,35.416337,-120.455709,CASLCC,Unknown,US-CA,10,Group-1,"3312, Kata Creek Road, San Luis Obispo County, California, 93432, United States",3312%2C%20Kata%20Creek%20Road%2C%20San%20Luis%20Obispo%20County%2C%20California%2C%2093432%2C%20United%20States,82.6,47.9,64.9,51.56,0,9,1013,9,503.1,Clear
488,10/4/2020,10/11/2020,0.562496424,Human,39.84813,-119.6588,NVSFC,Grass-Shrub,US-NV,7,Group-1,"17101, Pyramid Highway, Washoe County, Nevada, 89510, United States",17101%2C%20Pyramid%20Highway%2C%20Washoe%20County%2C%20Nevada%2C%2089510%2C%20United%20States,77.7,37.3,58.3,26.61,0,18.6,1017.2,9.9,588.8,Clear
489,5/2/2020,5/13/2020,110.3071628,Human,35.8539,-115.2766,NVLIC,Grass,US-NV,11,Group-1,"Clark County, Nevada, United States",Clark%20County%2C%20Nevada%2C%20United%20States,89.5,58.6,76.9,11.12,0,6.9,1011,9.9,482.7,Clear
491,7/5/2020,7/10/2020,4,Human,33.2849,-104.3738,NMADC,Brush,US-NM,5,Group-1,"6401, Lincoln Avenue, Chaves County, New Mexico, 88230, United States",6401%2C%20Lincoln%20Avenue%2C%20Chaves%20County%2C%20New%20Mexico%2C%2088230%2C%20United%20States,70.1,51.1,59.5,52.52,0,17.5,1016,9.9,314.9,Partially cloudy
492,6/25/2020,7/12/2020,3.014166439,Human,35.87955,-115.2224,NVLIC,Brush,US-NV,17,Group-2,"Clark County, Nevada, United States",Clark%20County%2C%20Nevada%2C%20United%20States,89.5,58.6,76.9,11.12,0,6.9,1011,9.9,482.7,Clear
493,8/11/2020,8/13/2020,4,Human,45.253783,-69.445469,NHNEC,Timber,US-ME,2,Group-1,"319, Steward Road, Monson, Maine, 04464, United States",319%2C%20Steward%20Road%2C%20Monson%2C%20Maine%2C%2004464%2C%20United%20States,59.6,45.1,51.9,38.62,0,10.4,1010.7,9.9,343.8,Partially cloudy
496,5/10/2020,5/15/2020,6.087713542,Human,35.88097,-115.221,NVLIC,Grass-Shrub,US-NV,5,Group-1,"Clark County, Nevada, United States",Clark%20County%2C%20Nevada%2C%20United%20States,89.5,58.6,76.9,11.12,0,6.9,1011,9.9,482.7,Clear
497,8/18/2020,9/1/2020,174.5080325,Unknown,40.02465,-121.576633,CABTCC,Unknown,US-CA,,,"Butte County, California, United States",Butte%20County%2C%20California%2C%20United%20States,88.9,61.9,75.2,31.67,0,8.5,1012.7,9.8,538.9,Clear
499,3/20/2021,4/11/2021,50,Unknown,47.57047697,-93.74467364,MNMNCC,Grass-Shrub,US-MN,22,Group-2,"Itasca County, Minnesota, United States",Itasca%20County%2C%20Minnesota%2C%20United%20States,50.3,37.3,43.3,64.13,0,17.1,1016.9,9.7,268.8,Partially cloudy
501,6/21/2020,6/22/2020,0.559340002,Human,36.83313,-114.058,NVLIC,Grass-Shrub,US-NV,1,Group-1,"Mesquite Airport, Sunset Drive, Mesquite, Clark County, Nevada, 89024, United States",Mesquite%20Airport%2C%20Sunset%20Drive%2C%20Mesquite%2C%20Clark%20County%2C%20Nevada%2C%2089024%2C%20United%20States,83,53.1,69.4,20.31,0,12.8,1012.4,9.9,439.7,Clear
503,9/19/2020,10/1/2020,0.846915975,Natural,39.97092,-116.7842,NVCNC,Timber,US-NV,12,Group-1,"Lander County, Nevada, United States",Lander%20County%2C%20Nevada%2C%20United%20States,75.2,30.2,54.2,31.43,0,21.6,1019.6,9.9,539.1,Clear
504,5/24/2020,5/25/2020,3.542914608,Human,35.87959,-115.2126,NVLIC,Grass-Shrub,US-NV,1,Group-1,"Clark County, Nevada, United States",Clark%20County%2C%20Nevada%2C%20United%20States,89.5,58.6,76.9,11.12,0,6.9,1011,9.9,482.7,Clear
506,5/11/2020,5/21/2020,14.99084571,Human,35.80397,-115.3071,NVLIC,Grass,US-NV,10,Group-1,"South Las Vegas Boulevard, Henderson, Clark County, Nevada, 89026, United States",South%20Las%20Vegas%20Boulevard%2C%20Henderson%2C%20Clark%20County%2C%20Nevada%2C%2089026%2C%20United%20States,89.3,62,77.1,11.07,0,6.3,1011.4,9.9,460.9,Clear
511,7/7/2020,7/28/2020,5,Natural,45.21421,-120.5679,ORCOC,Grass-Shrub,US-OR,21,Group-2,"Dobie Point Road, Sherman County, Oregon, United States",Dobie%20Point%20Road%2C%20Sherman%20County%2C%20Oregon%2C%20United%20States,75.8,52.1,64.4,47.32,0,20.3,1020,9.9,496.6,Clear
512,6/30/2020,7/1/2020,4,Human,33.2948,-110.4318,AZPHC,Grass-Shrub,US-AZ,1,Group-1,"197, Geronimo Drive, Graham County, Arizona, 85542, United States",197%2C%20Geronimo%20Drive%2C%20Graham%20County%2C%20Arizona%2C%2085542%2C%20United%20States,,,,,,,,,,
513,2/5/2021,4/17/2021,190.4711132,Human,29.31665,-81.7909,FLFIC,Grass,US-FL,71,Group-5,"Salt Springs Highway, Grahamsville, Marion County, Florida, 34488, United States",Salt%20Springs%20Highway%2C%20Grahamsville%2C%20Marion%20County%2C%20Florida%2C%2034488%2C%20United%20States,92.3,70,80.9,73.23,0.4,11.4,1015.8,9.6,351.5,"Rain, Partially cloudy"
514,7/9/2020,7/12/2020,7.342507645,Human,43.55086,-112.5263,IDEIC,Grass-Shrub,US-ID,3,Group-1,"US 20, Butte County, Idaho, United States",US%2020%2C%20Butte%20County%2C%20Idaho%2C%20United%20States,,,,,,,,,,
517,8/18/2020,9/1/2020,6.364230109,Unknown,40.0347,-121.70199,CABTCC,Unknown,US-CA,,,"Tehama County, California, United States",Tehama%20County%2C%20California%2C%20United%20States,89.9,64.8,76.2,28.54,0,20.6,1013,9.9,501.1,Clear
518,9/11/2020,10/13/2020,4,Human,44.03513101,-103.0360372,SDGPC,Grass,US-SD,32,Group-3,"Pennington County, South Dakota, United States",Pennington%20County%2C%20South%20Dakota%2C%20United%20States,61.8,33.3,47.4,59.35,0.07,20.1,1017,9.8,336,"Rain, Partially cloudy"
519,6/22/2020,6/22/2020,0.067665999,Human,35.88664,-115.225,NVLIC,Grass,US-NV,0,Group-1,"Las Vegas Freeway (Heavy Traffic Route), Clark County, Nevada, 89054, United States",Las%20Vegas%20Freeway%20(Heavy%20Traffic%20Route)%2C%20Clark%20County%2C%20Nevada%2C%2089054%2C%20United%20States,90,62.6,77.6,10.28,0,7.2,1011.4,9.9,482.7,Clear
521,11/6/2020,11/8/2020,19,Human,47.57047697,-93.74467364,MNMNCC,Unknown,US-MN,2,Group-1,"Itasca County, Minnesota, United States",Itasca%20County%2C%20Minnesota%2C%20United%20States,50.3,37.3,43.3,64.13,0,17.1,1016.9,9.7,268.8,Partially cloudy
525,8/16/2020,8/31/2020,14457.95093,Unknown,39.90812,-122.7077,CAMNFC,Brush,US-CA,15,Group-2,"Forest Route 24N04, Tehama County, California, United States",Forest%20Route%2024N04%2C%20Tehama%20County%2C%20California%2C%20United%20States,89.9,64.8,76.2,28.54,0,20.6,1013,9.9,501.1,Clear
526,9/30/2020,9/30/2020,4,Unknown,44.03513101,-103.0360372,SDGPC,Grass,US-SD,0,Group-1,"Pennington County, South Dakota, United States",Pennington%20County%2C%20South%20Dakota%2C%20United%20States,61.8,33.3,47.4,59.35,0.07,20.1,1017,9.8,336,"Rain, Partially cloudy"
527,8/16/2020,9/7/2020,4,Natural,33.18184,-110.5258,AZPHC,Grass-Shrub,US-AZ,22,Group-2,"Coolidge Dam Road, Coolidge Dam, Gila County, Arizona, United States",Coolidge%20Dam%20Road%2C%20Coolidge%20Dam%2C%20Gila%20County%2C%20Arizona%2C%20United%20States,,,,,,,,,,
529,7/16/2020,7/30/2020,4,Unknown,33.695575,-116.850688,CARRCC,Grass-Shrub,US-CA,,,"46032, Bautista Road, Riverside County, California, 92544, United States",46032%2C%20Bautista%20Road%2C%20Riverside%20County%2C%20California%2C%2092544%2C%20United%20States,91.1,53.1,72.8,40.51,0,16.4,1012,9.9,373.4,Clear
531,5/28/2020,6/11/2020,28.75,Unknown,37.47321024,-119.7222323,CASBDC,Unknown,US-CA,,,"5790, Creel Road, Ponderosa Basin, Mariposa County, California, 95338, United States",5790%2C%20Creel%20Road%2C%20Ponderosa%20Basin%2C%20Mariposa%20County%2C%20California%2C%2095338%2C%20United%20States,91,54.4,73.9,37.67,0,8.6,1012.2,9.9,528.1,Clear
533,7/18/2020,7/23/2020,4,Human,47.57047697,-93.74467364,MNMNCC,Grass,US-MN,5,Group-1,"Itasca County, Minnesota, United States",Itasca%20County%2C%20Minnesota%2C%20United%20States,50.3,37.3,43.3,64.13,0,17.1,1016.9,9.7,268.8,Partially cloudy
534,8/16/2020,8/19/2020,4,Undetermined,37.47321024,-119.7222323,CALACC,Grass,US-CA,3,Group-1,"5790, Creel Road, Ponderosa Basin, Mariposa County, California, 95338, United States",5790%2C%20Creel%20Road%2C%20Ponderosa%20Basin%2C%20Mariposa%20County%2C%20California%2C%2095338%2C%20United%20States,91,54.4,73.9,37.67,0,8.6,1012.2,9.9,528.1,Clear
535,7/6/2020,7/12/2020,4,Human,33.04284,-112.6639,AZPDC,Unknown,US-AZ,6,Group-1,"43936, South Old US 80, Gila Bend, Maricopa County, Arizona, 85326, United States",43936%2C%20South%20Old%20US%2080%2C%20Gila%20Bend%2C%20Maricopa%20County%2C%20Arizona%2C%2085326%2C%20United%20States,93.1,60.2,78.9,17.8,0,19.3,1010.2,9.8,460.7,Clear
536,7/19/2020,8/2/2020,61,Unknown,43.67134637,-120.1347892,ORRVC,Unknown,US-OR,,,"Deschutes County, Oregon, United States",Deschutes%20County%2C%20Oregon%2C%20United%20States,68,45.4,55.6,46.42,0,13.7,1021,9.9,450.6,Partially cloudy
537,8/12/2020,9/2/2020,13605.99526,Natural,40.85215,-119.6797,NVCNC,Timber,US-NV,21,Group-2,"Washoe County, Nevada, United States",Washoe%20County%2C%20Nevada%2C%20United%20States,,,,,,,,,,
538,9/17/2020,9/18/2020,0.007387433,Human,43.61439,-115.2021,IDSCC,Timber,US-ID,1,Group-1,"Chaparral Campground, South Fork Boise Road, Elmore County, Idaho, United States",Chaparral%20Campground%2C%20South%20Fork%20Boise%20Road%2C%20Elmore%20County%2C%20Idaho%2C%20United%20States,61.2,35.6,50.1,46.39,0,17.6,1015.9,9.9,389,Clear
539,7/12/2020,8/2/2020,4,Natural,34.52036,-98.57558,ARAOC,Unknown,US-OK,21,Group-2,"Southwest Tinney Road, Comanche County, Oklahoma, United States",Southwest%20Tinney%20Road%2C%20Comanche%20County%2C%20Oklahoma%2C%20United%20States,69.7,53.3,61.5,62.07,0.21,25.4,1014.4,9.9,445.1,"Rain, Partially cloudy"
541,3/18/2021,3/23/2021,0.11,Human,48.02863,-114.227,MTKIC,Grass,US-MT,5,Group-1,"49, Ellsworth Lane, Flathead County, Montana, 59922, United States",49%2C%20Ellsworth%20Lane%2C%20Flathead%20County%2C%20Montana%2C%2059922%2C%20United%20States,55.1,29,44,50.17,0,18.3,1014.9,9.9,207.6,Partially cloudy
542,3/6/2020,3/20/2020,4,Unknown,36.633611,-93.710556,MOMOC,Timber,US-MO,,,"State Highway M, Mano, Barry County, Missouri, 65658, United States",State%20Highway%20M%2C%20Mano%2C%20Barry%20County%2C%20Missouri%2C%2065658%2C%20United%20States,63.1,44.5,55.4,97.85,1.49,14.1,1011.7,6.8,84.1,"Rain, Partially cloudy"
543,3/7/2020,3/21/2020,4,Unknown,36.61022,-92.82771,MOMOC,Timber,US-MO,,,"Taney County, Missouri, United States",Taney%20County%2C%20Missouri%2C%20United%20States,63.9,46.2,57.2,95.96,0.93,14.2,1010.9,6.5,95.5,"Rain, Partially cloudy"
544,9/8/2020,9/22/2020,4,Human,41.249283,-123.3241,CAYICC,Timber,US-CA,,,"McNeal Creek Road, Forks of Salmon, Siskiyou County, California, United States",McNeal%20Creek%20Road%2C%20Forks%20of%20Salmon%2C%20Siskiyou%20County%2C%20California%2C%20United%20States,56,47.9,51,90.43,0,15,1020.7,8.9,566.9,Partially cloudy
545,6/26/2020,6/28/2020,4,Human,33.564654,-116.753473,CARRCC,Grass-Shrub,US-CA,2,Group-1,"38207, Indian Road, Riverside County, California, 92539, United States",38207%2C%20Indian%20Road%2C%20Riverside%20County%2C%20California%2C%2092539%2C%20United%20States,91.3,57.8,75.3,34.61,0,17.5,1011.9,9.6,559.9,Clear
547,8/17/2020,8/31/2020,1221.942129,Natural,37.47321024,-119.7222323,CAMNFC,Timber,US-CA,,,"5790, Creel Road, Ponderosa Basin, Mariposa County, California, 95338, United States",5790%2C%20Creel%20Road%2C%20Ponderosa%20Basin%2C%20Mariposa%20County%2C%20California%2C%2095338%2C%20United%20States,91,54.4,73.9,37.67,0,8.6,1012.2,9.9,528.1,Clear
548,9/22/2020,10/29/2020,1562.112019,Natural,36.6066,-114.0622,NVLIC,Brush,US-NV,37,Group-3,"Clark County, Nevada, United States",Clark%20County%2C%20Nevada%2C%20United%20States,89.5,58.6,76.9,11.12,0,6.9,1011,9.9,482.7,Clear
550,7/5/2020,7/12/2020,4,Natural,44.51501,-120.1373,ORJDCC,Unknown,US-OR,7,Group-1,"Wheeler County, Oregon, United States",Wheeler%20County%2C%20Oregon%2C%20United%20States,59.2,45.4,53.4,78.76,0.01,18.8,1024,9.5,336.7,"Rain, Partially cloudy"
552,6/2/2020,7/13/2020,5.036290854,Human,48.20183,-91.73244,MNMNCC,Timber,US-MN,41,Group-3,"Lake County, Minnesota, United States",Lake%20County%2C%20Minnesota%2C%20United%20States,58.5,42.7,50.7,50.19,0,14.1,1014,9.9,292.3,Partially cloudy
553,1/19/2021,1/24/2021,1.694115361,Human,29.02908,-81.49379,FLFIC,Timber,US-FL,5,Group-1,"46751, Nfs 540-3, Lake Kathryn Heights, Lake County, Florida, 32767, United States",46751%2C%20Nfs%20540-3%2C%20Lake%20Kathryn%20Heights%2C%20Lake%20County%2C%20Florida%2C%2032767%2C%20United%20States,93.5,71.5,81.6,70.03,0.62,12,1015.8,9.8,424.3,"Rain, Partially cloudy"
557,6/3/2020,6/7/2020,1.862728869,Human,36.02961,-115.6832,NVLIC,Grass,US-NV,4,Group-1,"Clark County, Nevada, United States",Clark%20County%2C%20Nevada%2C%20United%20States,89.5,58.6,76.9,11.12,0,6.9,1011,9.9,482.7,Clear
559,8/24/2020,10/1/2020,100,Unknown,46.74536,-108.6209,MTBDC,Unknown,US-MT,38,Group-3,"Musselshell County, Montana, 59072, United States",Musselshell%20County%2C%20Montana%2C%2059072%2C%20United%20States,55.3,37.3,45.6,53.55,0,28.9,1016.2,9.9,164.8,Partially cloudy
560,9/17/2020,9/27/2020,1.983942,Human,42.33992,-114.3773,IDSCC,Grass-Shrub,US-ID,10,Group-1,"Twin Falls County, Idaho, United States",Twin%20Falls%20County%2C%20Idaho%2C%20United%20States,66.1,42.5,54,38.1,0,21.6,1015.4,9.9,468,Partially cloudy
561,7/23/2020,7/25/2020,0.027702872,Human,36.5772,-116.0697,NVLIC,Brush,US-NV,2,Group-1,"Veterans Memorial Highway, Nye County, Nevada, 89023, United States",Veterans%20Memorial%20Highway%2C%20Nye%20County%2C%20Nevada%2C%2089023%2C%20United%20States,84.1,54.5,71.5,10.23,0,11.9,1011.5,9.9,431.4,Clear
562,8/17/2020,9/2/2020,24458.09092,Unknown,46.67034,-120.1145,WACWC,Unknown,US-WA,16,Group-2,"Yakima County, Washington, United States",Yakima%20County%2C%20Washington%2C%20United%20States,74.5,38.4,59.5,42.15,0.73,12.7,1019.2,9.9,481.8,Rain
564,6/14/2020,6/15/2020,4,Human,33.73384,-112.0055,AZPDC,Unknown,US-AZ,1,Group-1,"East Sonoran Desert Drive, Desert View, Phoenix, Maricopa County, Arizona, United States",East%20Sonoran%20Desert%20Drive%2C%20Desert%20View%2C%20Phoenix%2C%20Maricopa%20County%2C%20Arizona%2C%20United%20States,90.9,65.8,79,16.87,0,10.9,1009.9,9.9,509.6,Clear
565,4/7/2020,4/19/2020,8.966419838,Human,41.95662,-117.7058,NVCNC,Brush,US-NV,12,Group-1,"Veterans Memorial Highway, Humboldt County, Nevada, 89421, United States",Veterans%20Memorial%20Highway%2C%20Humboldt%20County%2C%20Nevada%2C%2089421%2C%20United%20States,80.1,38.1,59.7,24.89,0,15.4,1015,9.9,596.3,Clear
567,4/26/2020,5/12/2020,12.25849344,Human,41.02042,-111.879,UTNUC,Brush,US-UT,16,Group-2,"Wolverine Ridge Trail, Fruit Heights, Davis County, Utah, 84025, United States",Wolverine%20Ridge%20Trail%2C%20Fruit%20Heights%2C%20Davis%20County%2C%20Utah%2C%2084025%2C%20United%20States,65.2,45.2,55.9,40.49,0,12.4,1014.8,9.9,507.4,Partially cloudy
568,5/1/2020,5/11/2020,10.27583525,Human,38.94811,-109.2318,UTMFC,Unknown,US-UT,10,Group-1,"Beards Road, Grand County, Utah, United States",Beards%20Road%2C%20Grand%20County%2C%20Utah%2C%20United%20States,72,43.1,59,34.61,0,13.9,1013.2,9.9,189.2,Clear
575,6/28/2020,7/12/2020,9.530271064,Natural,38.12,-114.35,NVECC,Brush,US-NV,14,Group-1,"Lincoln County, Nevada, United States",Lincoln%20County%2C%20Nevada%2C%20United%20States,,,,,,,,,,
576,6/6/2020,6/14/2020,3170.096396,Natural,32.54438,-111.0779,AZTDC,Unknown,US-AZ,8,Group-1,"Pinal County, Arizona, United States",Pinal%20County%2C%20Arizona%2C%20United%20States,91,60.1,77.6,18.8,0,10,1011.2,9.9,517,Clear
582,7/22/2020,7/24/2020,0.10000381,Human,32.82078,-111.5147,AZTDC,Unknown,US-AZ,2,Group-1,"AZ 87, Eloy, Pinal County, Arizona, United States",AZ%2087%2C%20Eloy%2C%20Pinal%20County%2C%20Arizona%2C%20United%20States,91,60.7,77.7,18.46,0,9.9,1011.3,9.9,369.8,Clear
583,5/30/2020,6/13/2020,4,Human,31.50956,-109.6407,AZTDC,Unknown,US-AZ,14,Group-1,"Cochise County, Arizona, United States",Cochise%20County%2C%20Arizona%2C%20United%20States,80.9,52.8,68.1,18.39,0,12,1011,9.6,559.9,Clear
584,3/8/2021,3/9/2021,7,Human,34.6404,-95.79543,ARAOC,Unknown,US-OK,1,Group-1,"E1638 Road, Pittsburg County, Oklahoma, United States",E1638%20Road%2C%20Pittsburg%20County%2C%20Oklahoma%2C%20United%20States,63.9,47.3,59.3,85.9,0.15,14.9,1012,9.4,213.4,"Rain, Partially cloudy"
587,7/1/2020,7/12/2020,18.00434576,Human,40.03955,-114.5042,NVECC,Grass-Shrub,US-NV,11,Group-1,"White Pine County, Nevada, United States",White%20Pine%20County%2C%20Nevada%2C%20United%20States,69.2,26.1,49.5,33.23,0,19.6,1015.1,9.9,388.8,Clear
588,8/9/2020,12/1/2020,0.1,Unknown,37.856724,-120.453269,CATCCC,Grass,US-CA,114,Group-5,"13001, Red Hills Road, Chinese Camp, Tuolumne County, California, 95309, United States",13001%2C%20Red%20Hills%20Road%2C%20Chinese%20Camp%2C%20Tuolumne%20County%2C%20California%2C%2095309%2C%20United%20States,89.3,56.5,73.6,38.14,0,14.4,1012,9.9,576.6,Clear
590,8/31/2020,12/9/2020,75693.34418,Unknown,46.84789,-120.7715,WACWC,Unknown,US-WA,100,Group-5,"Yakima County, Washington, United States",Yakima%20County%2C%20Washington%2C%20United%20States,74.5,38.4,59.5,42.15,0.73,12.7,1019.2,9.9,481.8,Rain
592,8/17/2020,8/31/2020,926.2513544,Unknown,39.5605,-121.498,CABTCC,Unknown,US-CA,,,"Butte County, California, United States",Butte%20County%2C%20California%2C%20United%20States,88.9,61.9,75.2,31.67,0,8.5,1012.7,9.8,538.9,Clear
593,6/30/2020,7/1/2020,50,Human,34.93661,-98.39853,ARAOC,Grass-Shrub,US-OK,1,Group-1,"E1430 Road, Hatchetville, Caddo County, Oklahoma, United States",E1430%20Road%2C%20Hatchetville%2C%20Caddo%20County%2C%20Oklahoma%2C%20United%20States,68.9,53.2,60.2,67.15,0.34,24.2,1014.2,9.9,465.4,"Rain, Partially cloudy"
596,5/8/2020,5/11/2020,0.119336,Human,43.64854,-111.6752,IDEIC,Grass,US-ID,3,Group-1,"East Heise Road, Jefferson County, Idaho, 83443, United States",East%20Heise%20Road%2C%20Jefferson%20County%2C%20Idaho%2C%2083443%2C%20United%20States,56.1,42.7,49.1,53.55,0.1,14.8,1016.5,9.9,358.6,"Rain, Partially cloudy"
597,6/12/2020,7/1/2020,4,Human,33.29314,-110.4482,AZPHC,Grass-Shrub,US-AZ,19,Group-2,"101, East la Bamba, Graham County, Arizona, 85542, United States",101%2C%20East%20la%20Bamba%2C%20Graham%20County%2C%20Arizona%2C%2085542%2C%20United%20States,,,,,,,,,,
599,1/11/2020,1/14/2020,4,Human,35.08555,-98.48799,ARAOC,Grass-Shrub,US-OK,3,Group-1,"E1330 Road, Caddo County, Oklahoma, 73038, United States",E1330%20Road%2C%20Caddo%20County%2C%20Oklahoma%2C%2073038%2C%20United%20States,67.5,51.7,58.9,68.77,0.5,24.6,1014.5,9.9,497.7,"Rain, Partially cloudy"
600,7/21/2020,7/26/2020,223,Human,44.06594,-106.2697,WYCPC,Grass-Shrub,US-WY,5,Group-1,"Iberlin 4-Mile Road, Johnson County, Wyoming, United States",Iberlin%204-Mile%20Road%2C%20Johnson%20County%2C%20Wyoming%2C%20United%20States,57.7,35.4,45.8,57.82,0,18.8,1015.5,9.9,341.5,Partially cloudy
602,8/23/2020,8/24/2020,8.476001777,Unknown,39.60346,-119.8625,NVSFC,Unknown,US-NV,1,Group-1,"Blackfoot Way, Reno, Washoe County, Nevada, 89506, United States",Blackfoot%20Way%2C%20Reno%2C%20Washoe%20County%2C%20Nevada%2C%2089506%2C%20United%20States,76.8,35.6,57.6,26.47,0,19.6,1018.3,9.9,567.7,Clear
603,7/31/2020,8/7/2020,58,Natural,43.72641,-105.0849,WYCPC,Grass-Shrub,US-WY,7,Group-1,"Keeline Road, Campbell County, Wyoming, United States",Keeline%20Road%2C%20Campbell%20County%2C%20Wyoming%2C%20United%20States,60.2,36,46.6,57.99,0,21,1015.9,9.9,312.3,Partially cloudy
604,9/6/2020,12/21/2020,5831.799796,Human,39.9202,-111.7582,UTNUC,Unknown,US-UT,106,Group-5,"Canyon Road, Santaquin, Utah County, Utah, 84655, United States",Canyon%20Road%2C%20Santaquin%2C%20Utah%20County%2C%20Utah%2C%2084655%2C%20United%20States,66,40.3,54.1,47.27,0,11.9,1016,9.9,468.6,Partially cloudy
608,3/8/2021,3/22/2021,1,Unknown,36.5686,-93.7965,MOMOC,Unknown,US-MO,,,"State Highway F, Barry County, Missouri, United States",State%20Highway%20F%2C%20Barry%20County%2C%20Missouri%2C%20United%20States,62.4,44.4,55,96.97,1.52,14.2,1011.7,7.5,104.2,"Rain, Partially cloudy"
612,2/23/2021,4/20/2021,4,Human,44.09085,-121.124,ORCOC,Grass-Shrub,US-OR,56,Group-4,"Deschutes County, Oregon, United States",Deschutes%20County%2C%20Oregon%2C%20United%20States,53.4,34.9,43.3,56.4,0,18.6,1022.1,9.9,537.3,Partially cloudy
613,9/8/2020,9/8/2020,4,Unknown,37.47321024,-119.7222323,CALACC,Brush,US-CA,0,Group-1,"5790, Creel Road, Ponderosa Basin, Mariposa County, California, 95338, United States",5790%2C%20Creel%20Road%2C%20Ponderosa%20Basin%2C%20Mariposa%20County%2C%20California%2C%2095338%2C%20United%20States,91,54.4,73.9,37.67,0,8.6,1012.2,9.9,528.1,Clear
614,6/22/2020,9/22/2020,38,Natural,46.5407855,-108.3748779,MTNCA,Grass-Shrub,US-MT,92,Group-5,"572, North Gage Road, Musselshell County, Montana, 59072, United States",572%2C%20North%20Gage%20Road%2C%20Musselshell%20County%2C%20Montana%2C%2059072%2C%20United%20States,55.4,38.1,46.6,53.27,0.01,27.1,1016.2,9.9,175.8,"Rain, Partially cloudy"
615,12/9/2020,12/9/2020,8.4,Unknown,47.57047697,-93.74467364,MNMNCC,Unknown,US-MN,0,Group-1,"Itasca County, Minnesota, United States",Itasca%20County%2C%20Minnesota%2C%20United%20States,50.3,37.3,43.3,64.13,0,17.1,1016.9,9.7,268.8,Partially cloudy
619,6/27/2020,7/3/2020,0.164486284,Human,42.60977,-121.8669,ORLFC,Unknown,US-OR,6,Group-1,"Cattle Drive, Klamath County, Oregon, United States",Cattle%20Drive%2C%20Klamath%20County%2C%20Oregon%2C%20United%20States,69.2,34.1,52.1,56.99,0,12.8,1018.5,9.9,497.1,Clear
621,3/1/2021,3/4/2021,4,Human,42.97247,-120.7757,ORLFC,Unknown,US-OR,3,Group-1,"Thousand Springs Lane, Summer Lake, Lake County, Oregon, United States",Thousand%20Springs%20Lane%2C%20Summer%20Lake%2C%20Lake%20County%2C%20Oregon%2C%20United%20States,,,,,,,,,,
624,9/17/2020,9/25/2020,4,Human,33.38342,-110.4668,AZPHC,Grass-Shrub,US-AZ,8,Group-1,"San Carlos Airport, North Airport 79 Road, Gila County, Arizona, United States",San%20Carlos%20Airport%2C%20North%20Airport%2079%20Road%2C%20Gila%20County%2C%20Arizona%2C%20United%20States,,,,,,,,,,
625,9/8/2020,9/22/2020,157429.7465,Unknown,41.858026,-123.353584,CAYICC,Unknown,US-CA,,,"Slater Butte L.O., Siskiyou County, California, United States",Slater%20Butte%20L.O.%2C%20Siskiyou%20County%2C%20California%2C%20United%20States,69.8,48.9,58.9,56.49,0,12.1,1019.6,8.5,490.6,Partially cloudy
626,8/28/2020,9/24/2020,633,Natural,33.574,-110.3783,AZPHC,Grass-Shrub,US-AZ,27,Group-2,"1130, Gila County, Arizona, United States",1130%2C%20Gila%20County%2C%20Arizona%2C%20United%20States,77,46.4,63.5,22.9,0,9.2,1019.1,9.9,573.7,Clear
630,3/7/2021,3/8/2021,4.1,Human,46.5407855,-108.3748779,MTRBAC,Grass,US-MT,1,Group-1,"572, North Gage Road, Musselshell County, Montana, 59072, United States",572%2C%20North%20Gage%20Road%2C%20Musselshell%20County%2C%20Montana%2C%2059072%2C%20United%20States,76.5,48.1,63.4,43.72,0,11,1020.3,9.9,501.9,Clear
631,7/17/2020,7/20/2020,0.205021775,Human,36.26073,-115.3299,NVLIC,Grass-Shrub,US-NV,3,Group-1,"North Shaumber Road, Las Vegas, Clark County, Nevada, 89166, United States",North%20Shaumber%20Road%2C%20Las%20Vegas%2C%20Clark%20County%2C%20Nevada%2C%2089166%2C%20United%20States,90.1,62.7,77.7,10.19,0,7.5,1011.4,9.9,527.7,Clear
632,3/9/2021,3/17/2021,1,Human,37.48595,-92.13701,MOMOC,Unknown,US-MO,8,Group-1,"State Highway AP, Windy Curve, Texas County, Missouri, 65557, United States",State%20Highway%20AP%2C%20Windy%20Curve%2C%20Texas%20County%2C%20Missouri%2C%2065557%2C%20United%20States,65.6,47.1,56.1,93.52,1.2,14.9,1010.7,8.6,59.3,"Rain, Partially cloudy"
633,3/10/2021,3/16/2021,1,Human,34.15483,-94.73421,ARAOC,Timber,US-OK,6,Group-1,"Old Hochatown Road, Hochatown, McCurtain County, Oklahoma, United States",Old%20Hochatown%20Road%2C%20Hochatown%2C%20McCurtain%20County%2C%20Oklahoma%2C%20United%20States,92.8,71.5,82.4,69.39,0,6.9,1014.6,9.3,560.3,Clear
635,8/1/2020,10/14/2020,21428.16467,Natural,33.51164,-110.4002,AZPHC,Grass-Shrub,US-AZ,74,Group-5,"Cassadore Spring, Indian Route 1100, Bear Canyon Junction, Gila County, Arizona, United States",Cassadore%20Spring%2C%20Indian%20Route%201100%2C%20Bear%20Canyon%20Junction%2C%20Gila%20County%2C%20Arizona%2C%20United%20States,,,,,,,,,,
638,8/17/2020,8/31/2020,4,Human,34.04051,-118.69728,CALACC,Brush,US-CA,,,"3397, Malibu Canyon Road, Malibu, California, 90265, United States",3397%2C%20Malibu%20Canyon%20Road%2C%20Malibu%2C%20California%2C%2090265%2C%20United%20States,74.8,58.5,65.7,65.51,0,10.8,1012.8,9,525.6,Partially cloudy
640,7/3/2020,7/7/2020,116.6781197,Human,43.87265,-112.2016,IDEIC,Grass-Shrub,US-ID,4,Group-1,"I 15, Hamer, Jefferson County, Idaho, United States",I%2015%2C%20Hamer%2C%20Jefferson%20County%2C%20Idaho%2C%20United%20States,57.2,43.5,49.9,52.33,0.04,15,1016.3,9.9,260,"Rain, Partially cloudy"
641,7/1/2020,7/15/2020,0.19,Unknown,43.02722,-105.0897,WYCPC,Timber,US-WY,,,"Converse County, Wyoming, United States",Converse%20County%2C%20Wyoming%2C%20United%20States,56.1,27.4,43.2,64.53,0.02,18.6,1016.9,9.9,300.6,"Rain, Partially cloudy"
642,8/19/2020,8/30/2020,15,Natural,44.87624,-119.2647,ORJDCC,Unknown,US-OR,11,Group-1,"Grant County, Oregon, United States",Grant%20County%2C%20Oregon%2C%20United%20States,63,47.6,53.3,62.61,0.04,8.1,1021,9.8,298.1,"Rain, Partially cloudy"
643,6/7/2020,6/21/2020,28.68,Unknown,34.951294,-120.295422,CASBDC,Unknown,US-CA,,,"Santa Maria Mesa Road, Santa Barbara County, California, United States",Santa%20Maria%20Mesa%20Road%2C%20Santa%20Barbara%20County%2C%20California%2C%20United%20States,74,45.4,58.3,70.86,0,11.5,1013.8,7.1,564.1,Clear
644,7/15/2020,7/15/2020,1.016046299,Human,35.88248,-115.2295,NVLIC,Grass,US-NV,0,Group-1,"Las Vegas Freeway (Heavy Traffic Route), Clark County, Nevada, 89054, United States",Las%20Vegas%20Freeway%20(Heavy%20Traffic%20Route)%2C%20Clark%20County%2C%20Nevada%2C%2089054%2C%20United%20States,90,62.6,77.6,10.28,0,7.2,1011.4,9.9,482.7,Clear
646,7/18/2020,7/18/2020,4,Human,34.05622,-118.79849,CALACC,Timber,US-CA,0,Group-1,"2980, Dume Canyon Motorway, Oak Hill, California, 90265, United States",2980%2C%20Dume%20Canyon%20Motorway%2C%20Oak%20Hill%2C%20California%2C%2090265%2C%20United%20States,70.1,54.2,61.8,76.17,0,9.6,1013.5,8.2,512.3,Partially cloudy
647,11/18/2020,11/30/2020,40,Unknown,30.45114,-95.05611,TXTIC,Timber,US-TX,12,Group-1,"Pine Shadows, San Jacinto County, Texas, United States",Pine%20Shadows%2C%20San%20Jacinto%20County%2C%20Texas%2C%20United%20States,83.2,67.4,76.2,82.6,0.23,13.9,1009.7,7.6,190.8,"Rain, Partially cloudy"
651,3/8/2021,3/12/2021,16.56,Human,30.671,-94.259,TXTIC,Unknown,US-TX,4,Group-1,"Tyler County, Texas, United States",Tyler%20County%2C%20Texas%2C%20United%20States,74.7,60.2,69.9,72.63,0.02,17.9,1010.1,9.9,347.2,"Rain, Partially cloudy"
652,7/5/2020,7/5/2020,0.00093624,Human,36.20071,-114.9944,NVLIC,Grass,US-NV,0,Group-1,"Lake Mead Boulevard, Clark County, Nevada, 89005, United States",Lake%20Mead%20Boulevard%2C%20Clark%20County%2C%20Nevada%2C%2089005%2C%20United%20States,89.5,61.1,77.1,10.86,0,5.7,1011.3,9.9,557.1,Clear
653,4/11/2020,4/14/2020,12.9,Natural,47.57047697,-93.74467364,MNMNCC,Unknown,US-MN,3,Group-1,"Itasca County, Minnesota, United States",Itasca%20County%2C%20Minnesota%2C%20United%20States,50.3,37.3,43.3,64.13,0,17.1,1016.9,9.7,268.8,Partially cloudy
656,7/12/2020,7/13/2020,4.78241206,Human,36.06559,-115.1112,NVLIC,Grass,US-NV,1,Group-1,"Mira Vista Street, Paradise, Clark County, Nevada, 89120, United States",Mira%20Vista%20Street%2C%20Paradise%2C%20Clark%20County%2C%20Nevada%2C%2089120%2C%20United%20States,89.1,62,77,11.27,0,7.2,1011.4,9.9,482.7,Clear
657,11/12/2020,11/16/2020,0.116081738,Human,35.83105,-115.4201,NVLIC,Grass,US-NV,4,Group-1,"Goodsprings Bypass Gravel Haul Route, Goodsprings, Clark County, Nevada, United States",Goodsprings%20Bypass%20Gravel%20Haul%20Route%2C%20Goodsprings%2C%20Clark%20County%2C%20Nevada%2C%20United%20States,89.4,62,77.2,10.81,0,5.8,1011.4,9.9,581.4,Clear
659,9/9/2020,9/11/2020,4,Unknown,46.5407855,-108.3748779,MTRBAC,Grass,US-MT,2,Group-1,"572, North Gage Road, Musselshell County, Montana, 59072, United States",572%2C%20North%20Gage%20Road%2C%20Musselshell%20County%2C%20Montana%2C%2059072%2C%20United%20States,55.4,38.1,46.6,53.27,0.01,27.1,1016.2,9.9,175.8,"Rain, Partially cloudy"
662,8/17/2020,11/18/2020,243.9862235,Human,47.34037,-117.6388,WANEC,Unknown,US-WA,93,Group-5,"South Aztec Lane, Spokane County, Washington, United States",South%20Aztec%20Lane%2C%20Spokane%20County%2C%20Washington%2C%20United%20States,67.3,37.6,53.4,42.55,0,18.9,1018.5,9.9,448.1,Partially cloudy
664,8/20/2020,8/20/2020,4,Human,42.0761,-123.2011,ORRVC,Timber,US-OR,0,Group-1,"Carberry Creek Road, Jackson County, Oregon, United States",Carberry%20Creek%20Road%2C%20Jackson%20County%2C%20Oregon%2C%20United%20States,72.4,48.2,59.7,51.82,0,9.3,1019.4,9.5,446.1,Partially cloudy
665,3/7/2021,3/13/2021,60,Human,37.710278,-92.385556,MOMOC,Timber,US-MO,6,Group-1,"Pulaski County, Missouri, United States",Pulaski%20County%2C%20Missouri%2C%20United%20States,63,49.8,58.3,87.21,0.05,16.5,1015.2,9.6,144.3,"Rain, Partially cloudy"
666,3/8/2021,3/22/2021,13.33,Undetermined,37.75361,-88.93604,ILILC,Grass,US-IL,,,"WDDD-AM (Johnston City), Court Street, Marion, Williamson County, Illinois, 62959, United States",WDDD-AM%20(Johnston%20City)%2C%20Court%20Street%2C%20Marion%2C%20Williamson%20County%2C%20Illinois%2C%2062959%2C%20United%20States,68.2,54.5,63,88.27,0.88,12.3,1008.6,8.1,101.5,"Rain, Partially cloudy"
668,7/23/2020,7/27/2020,472,Natural,43.45068,-105.8605,WYCPC,Grass-Shrub,US-WY,4,Group-1,"Ross, Converse County, Wyoming, United States",Ross%2C%20Converse%20County%2C%20Wyoming%2C%20United%20States,56.1,27.4,43.2,64.53,0.02,18.6,1016.9,9.9,300.6,"Rain, Partially cloudy"
669,3/14/2021,3/16/2021,18,Human,47.57047697,-93.74467364,MNMNCC,Grass,US-MN,2,Group-1,"Itasca County, Minnesota, United States",Itasca%20County%2C%20Minnesota%2C%20United%20States,50.3,37.3,43.3,64.13,0,17.1,1016.9,9.7,268.8,Partially cloudy
670,8/9/2020,8/11/2020,31.06000314,Human,35.81252,-115.2996,NVLIC,Grass,US-NV,2,Group-1,"Vegas Off Road Tours, 21016, South Las Vegas Boulevard, Jean, Clark County, Nevada, 89109, United States",Vegas%20Off%20Road%20Tours%2C%2021016%2C%20South%20Las%20Vegas%20Boulevard%2C%20Jean%2C%20Clark%20County%2C%20Nevada%2C%2089109%2C%20United%20States,89.4,61.9,77.2,10.87,0,5.8,1011.4,9.9,460.9,Clear
671,7/4/2020,7/4/2020,1.121016289,Unknown,39.58838,-119.2682,NVSFC,Grass-Shrub,US-NV,0,Group-1,"Sage Lane, Fernley, Lyon County, Nevada, 89408, United States",Sage%20Lane%2C%20Fernley%2C%20Lyon%20County%2C%20Nevada%2C%2089408%2C%20United%20States,79.4,39.9,60,23.52,0,16,1015.3,9.9,596.3,Clear
674,9/29/2020,10/14/2020,4,Human,44.03513101,-103.0360372,SDGPC,Grass,US-SD,15,Group-2,"Pennington County, South Dakota, United States",Pennington%20County%2C%20South%20Dakota%2C%20United%20States,61.8,33.3,47.4,59.35,0.07,20.1,1017,9.8,336,"Rain, Partially cloudy"
675,8/17/2020,8/31/2020,0.050455031,Unknown,39.527383,-121.281667,CABTCC,Unknown,US-CA,,,"174, Old Forbestown Road, Old Forbestown, Forbestown, Butte County, California, 95966, United States",174%2C%20Old%20Forbestown%20Road%2C%20Old%20Forbestown%2C%20Forbestown%2C%20Butte%20County%2C%20California%2C%2095966%2C%20United%20States,87.3,60.9,74.2,30.51,0,7.8,1013.2,9.8,526.8,Clear
676,8/17/2020,8/31/2020,0.007329158,Unknown,39.909682,-121.717032,CABTCC,Unknown,US-CA,,,"536, Ponderosa Way, Butte County, California, 95973, United States",536%2C%20Ponderosa%20Way%2C%20Butte%20County%2C%20California%2C%2095973%2C%20United%20States,89.5,63.1,75.9,28.51,0,17.3,1012.9,17.5,530.5,Clear
677,5/21/2020,5/29/2020,1796,Human,47.57047697,-93.74467364,MNMNCC,Unknown,US-MN,8,Group-1,"Itasca County, Minnesota, United States",Itasca%20County%2C%20Minnesota%2C%20United%20States,50.3,37.3,43.3,64.13,0,17.1,1016.9,9.7,268.8,Partially cloudy
678,9/15/2020,9/19/2020,4,Human,44.03513101,-103.0360372,SDGPC,Grass,US-SD,4,Group-1,"Pennington County, South Dakota, United States",Pennington%20County%2C%20South%20Dakota%2C%20United%20States,61.8,33.3,47.4,59.35,0.07,20.1,1017,9.8,336,"Rain, Partially cloudy"
679,6/1/2020,6/14/2020,4,Human,32.91201,-111.2816,AZTDC,Unknown,US-AZ,13,Group-1,"Thistle Drive, Pinal County, Arizona, United States",Thistle%20Drive%2C%20Pinal%20County%2C%20Arizona%2C%20United%20States,90.9,62.1,77.9,17.9,0,9.4,1011.1,9.9,369.8,Clear
680,8/3/2020,8/31/2020,4,Human,34.97133,-108.1404,NMABC,Timber,US-NM,28,Group-2,"County Road 42, Cibola County, New Mexico, United States",County%20Road%2042%2C%20Cibola%20County%2C%20New%20Mexico%2C%20United%20States,72.2,29.3,51.4,45.62,0,13.9,1020.8,9.9,614.3,Clear
681,3/7/2020,3/21/2020,4,Unknown,37.54605,-92.13187,MOMOC,Unknown,US-MO,,,"State Highway 17, Roby, Texas County, Missouri, 65552, United States",State%20Highway%2017%2C%20Roby%2C%20Texas%20County%2C%20Missouri%2C%2065552%2C%20United%20States,65.5,47,55.6,94.15,1.22,16.4,1010.8,8.6,59.3,"Rain, Partially cloudy"
682,7/22/2020,7/29/2020,0.5,Natural,42.2743,-120.8514,ORLFC,Grass-Shrub,US-OR,7,Group-1,"Lake County, Oregon, United States",Lake%20County%2C%20Oregon%2C%20United%20States,68,36,51.8,53.57,0,15,1019.6,9.9,501.2,Clear
684,8/17/2020,8/31/2020,93.75564516,Unknown,39.964,-121.511117,CABTCC,Unknown,US-CA,,,"Butte County, California, United States",Butte%20County%2C%20California%2C%20United%20States,88.9,61.9,75.2,31.67,0,8.5,1012.7,9.8,538.9,Clear
685,9/7/2020,9/8/2020,40.36676445,Human,44.46092,-108.5283,WYCDC,Grass-Shrub,US-WY,1,Group-1,"US 14;US 16;US 20, Emblem, Big Horn County, Wyoming, United States",US%2014;US%2016;US%2020%2C%20Emblem%2C%20Big%20Horn%20County%2C%20Wyoming%2C%20United%20States,67.6,51.5,58.7,79.34,0.49,13.2,1007,8.4,299.9,"Rain, Overcast"
686,8/10/2020,8/12/2020,100.095355,Human,43.24943,-115.8379,IDBDC,Grass,US-ID,2,Group-1,"13656, Ditto Creek Road, Elmore County, Idaho, 83647, United States",13656%2C%20Ditto%20Creek%20Road%2C%20Elmore%20County%2C%20Idaho%2C%2083647%2C%20United%20States,69.2,42.4,57.2,36.59,0,22.7,1017,9.9,514.2,Partially cloudy
687,11/7/2020,11/21/2020,16.64282945,Human,36.77181,-114.2397,NVLIC,Unknown,US-NV,,,"112, Las Vegas Freeway, Mesquite, Clark County, Nevada, United States",112%2C%20Las%20Vegas%20Freeway%2C%20Mesquite%2C%20Clark%20County%2C%20Nevada%2C%20United%20States,90,62.6,77.6,10.28,0,7.2,1011.4,9.9,482.7,Clear
688,1/6/2020,1/20/2020,4,Unknown,34.06918,-118.70772,CALACC,Grass-Shrub,US-CA,,,"Malibu Canyon Road, Malibu, California, 90265-4797, United States",Malibu%20Canyon%20Road%2C%20Malibu%2C%20California%2C%2090265-4797%2C%20United%20States,74.9,58.5,65.7,65.36,0,10.8,1012.8,9,525.6,Partially cloudy
691,10/27/2020,10/27/2020,4,Human,34.10917,-118.62958,CALACC,Timber,US-CA,0,Group-1,"1497, Old Topanga Canyon Road, Calabasas Highlands, Topanga, Calabasas, California, 90290, United States",1497%2C%20Old%20Topanga%20Canyon%20Road%2C%20Calabasas%20Highlands%2C%20Topanga%2C%20Calabasas%2C%20California%2C%2090290%2C%20United%20States,81.6,58.1,68.4,56.96,0,10.5,1012.3,9.3,486.9,Clear
692,1/15/2021,1/25/2021,11.25869031,Human,33.30744,-111.2463,AZPHC,Grass,US-AZ,10,Group-1,"Hewitt Canyon Road, Pinal County, Arizona, United States",Hewitt%20Canyon%20Road%2C%20Pinal%20County%2C%20Arizona%2C%20United%20States,98.3,71.2,85.6,11.85,0,11.4,1008.4,9.9,533.9,Clear
694,6/5/2020,6/14/2020,4,Human,33.35889,-110.4895,AZPHC,Grass-Shrub,US-AZ,9,Group-1,"Indian Route 6, San Carlos, Gila County, Arizona, United States",Indian%20Route%206%2C%20San%20Carlos%2C%20Gila%20County%2C%20Arizona%2C%20United%20States,,,,,,,,,,
695,7/5/2020,7/6/2020,4,Human,34.81139,-98.22495,ARAOC,Grass,US-OK,1,Group-1,"Watts Road, Comanche County, Oklahoma, 73541, United States",Watts%20Road%2C%20Comanche%20County%2C%20Oklahoma%2C%2073541%2C%20United%20States,68.8,52.9,60.1,67.43,0.35,24.4,1014.2,9.9,445.1,"Rain, Partially cloudy"
696,5/12/2020,6/1/2020,682.6798693,Human,40.55244,-111.4646,UTNUC,Unknown,US-UT,20,Group-2,"Prospect, Wasatch County, Utah, 84049, United States",Prospect%2C%20Wasatch%20County%2C%20Utah%2C%2084049%2C%20United%20States,64.2,34.2,49.6,50.46,0,16.1,1017.4,9.9,278.4,Partially cloudy
697,11/30/2020,12/14/2020,18.33801958,Human,40.83824,-112.5022,UTNUC,Grass,US-UT,,,"Tooele County, Utah, United States",Tooele%20County%2C%20Utah%2C%20United%20States,67.8,38.2,54.5,48.74,0,11.9,1014,9.9,469.4,Clear
698,8/2/2020,8/3/2020,13.7026388,Human,36.39274,-114.6493,NVLIC,Grass-Shrub,US-NV,1,Group-1,"Clark County, Nevada, United States",Clark%20County%2C%20Nevada%2C%20United%20States,89.5,58.6,76.9,11.12,0,6.9,1011,9.9,482.7,Clear
701,12/2/2020,12/6/2020,0.62,Human,36.58365,-114.6522,NVLIC,Grass,US-NV,4,Group-1,"Las Vegas Freeway, Clark County, Nevada, 89025, United States",Las%20Vegas%20Freeway%2C%20Clark%20County%2C%20Nevada%2C%2089025%2C%20United%20States,90,62.6,77.6,10.28,0,7.2,1011.4,9.9,482.7,Clear
702,10/1/2020,11/19/2020,119.1527078,Human,31.33361,-109.05,AZTDC,Grass-Shrub,US-AZ,49,Group-4,"Hidalgo County, New Mexico, United States",Hidalgo%20County%2C%20New%20Mexico%2C%20United%20States,,,,,,,,,,
704,9/22/2020,9/24/2020,4,Human,42.407211,-71.382437,NHNEC,Grass-Shrub,US-MA,2,Group-1,"991, Concord Road, North Sudbury, Sudbury, Middlesex County, Massachusetts, 01776, United States",991%2C%20Concord%20Road%2C%20North%20Sudbury%2C%20Sudbury%2C%20Middlesex%20County%2C%20Massachusetts%2C%2001776%2C%20United%20States,,,,,,,,,,
706,8/7/2020,12/20/2020,4,Unknown,46.86271,-112.6781,MTHDC,Unknown,US-MT,135,Group-5,"Lewis and Clark County, Montana, United States",Lewis%20and%20Clark%20County%2C%20Montana%2C%20United%20States,58.9,39.4,49.3,46.6,0.17,23.1,1016.6,9.9,417.5,"Rain, Partially cloudy"
707,6/24/2020,6/27/2020,4,Human,33.88577,-112.1698,AZPDC,Unknown,US-AZ,3,Group-1,"Circle Mountain Road, Rio Vista, Phoenix, Maricopa County, Arizona, 85087, United States",Circle%20Mountain%20Road%2C%20Rio%20Vista%2C%20Phoenix%2C%20Maricopa%20County%2C%20Arizona%2C%2085087%2C%20United%20States,91,65.2,78.9,16.76,0,10.5,1009.9,9.9,520.2,Clear
708,3/9/2021,3/17/2021,2518.27,Unknown,31.1181,-92.56084,LALIC,Unknown,US-LA,8,Group-1,"Forest Rte 253, Rapides Parish, Louisiana, United States",Forest%20Rte%20253%2C%20Rapides%20Parish%2C%20Louisiana%2C%20United%20States,83,67.7,74.7,87.98,1.95,11,1009.5,7.3,259.3,"Rain, Partially cloudy"
712,7/22/2020,7/22/2020,4,Human,45.84135,-106.5088,MTMCC,Grass,US-MT,0,Group-1,"State Trust, Cowcreek Road, Rosebud County, Montana, United States",State%20Trust%2C%20Cowcreek%20Road%2C%20Rosebud%20County%2C%20Montana%2C%20United%20States,64.1,30.8,48.2,50.14,0.02,17.2,1015.5,9.9,335.8,"Rain, Partially cloudy"
714,3/6/2020,3/8/2020,4,Human,35.07245,-98.54492,ARAOC,Grass,US-OK,2,Group-1,"5103, E1340 Road, Caddo County, Oklahoma, 73015, United States",5103%2C%20E1340%20Road%2C%20Caddo%20County%2C%20Oklahoma%2C%2073015%2C%20United%20States,,,,,,,,,,
715,9/5/2020,11/19/2020,4,Human,43.2404,-111.0291,IDEIC,Brush,US-WY,75,Group-5,"South Fork Indian Creek Trail, Lincoln County, Wyoming, United States",South%20Fork%20Indian%20Creek%20Trail%2C%20Lincoln%20County%2C%20Wyoming%2C%20United%20States,51.6,31.6,40,72.6,0,17.4,1018.5,9.1,362.4,Partially cloudy
716,6/9/2020,6/19/2020,0.908812668,Human,36.27714,-115.3288,NVLIC,Grass,US-NV,10,Group-1,"North Shaumber Road, Las Vegas, Clark County, Nevada, 89166, United States",North%20Shaumber%20Road%2C%20Las%20Vegas%2C%20Clark%20County%2C%20Nevada%2C%2089166%2C%20United%20States,90.1,62.7,77.7,10.19,0,7.5,1011.4,9.9,527.7,Clear
717,4/17/2020,4/25/2020,442.5,Unknown,47.57047697,-93.74467364,MNMNCC,Unknown,US-MN,8,Group-1,"Itasca County, Minnesota, United States",Itasca%20County%2C%20Minnesota%2C%20United%20States,50.3,37.3,43.3,64.13,0,17.1,1016.9,9.7,268.8,Partially cloudy
722,7/18/2020,7/20/2020,4,Human,34.94447,-98.35662,ARAOC,Unknown,US-OK,2,Group-1,"US 62;US 281, Caddo County, Oklahoma, United States",US%2062;US%20281%2C%20Caddo%20County%2C%20Oklahoma%2C%20United%20States,78.2,53,65.9,34,0,10.7,1012.3,9.9,513.3,Clear
723,6/16/2020,6/19/2020,4,Natural,32.1117,-110.4696,AZTDC,Unknown,US-AZ,3,Group-1,"East Happy Valley Road, Pima County, Arizona, United States",East%20Happy%20Valley%20Road%2C%20Pima%20County%2C%20Arizona%2C%20United%20States,88.1,57.5,74.8,16.46,0,9.1,1011.2,9.9,570.1,Clear
724,10/4/2020,10/4/2020,4,Unknown,44.03513101,-103.0360372,SDGPC,Grass,US-SD,0,Group-1,"Pennington County, South Dakota, United States",Pennington%20County%2C%20South%20Dakota%2C%20United%20States,61.8,33.3,47.4,59.35,0.07,20.1,1017,9.8,336,"Rain, Partially cloudy"
725,9/17/2020,9/21/2020,4,Human,44.03513101,-103.0360372,SDGPC,Grass,US-SD,4,Group-1,"Pennington County, South Dakota, United States",Pennington%20County%2C%20South%20Dakota%2C%20United%20States,61.8,33.3,47.4,59.35,0.07,20.1,1017,9.8,336,"Rain, Partially cloudy"
726,3/2/2021,3/7/2021,7.79,Human,31.467,-109.7319,AZTDC,Unknown,US-AZ,5,Group-1,"4999, Double Adobe Road, Cochise County, Arizona, 85617, United States",4999%2C%20Double%20Adobe%20Road%2C%20Cochise%20County%2C%20Arizona%2C%2085617%2C%20United%20States,80.9,52.9,68.1,18.32,0,12,1011,9.6,567.9,Clear
727,5/7/2020,5/7/2020,4,Human,33.3116,-110.4558,AZPHC,Grass,US-AZ,0,Group-1,"Indian Route 170, Peridot, Gila County, Arizona, 85542, United States",Indian%20Route%20170%2C%20Peridot%2C%20Gila%20County%2C%20Arizona%2C%2085542%2C%20United%20States,,,,,,,,,,
728,3/7/2021,3/17/2021,12,Human,36.89933,-92.04221,MOMOC,Timber,US-MO,10,Group-1,"Fs4120, Howell County, Missouri, United States",Fs4120%2C%20Howell%20County%2C%20Missouri%2C%20United%20States,78.2,69.1,73.6,82.62,0.03,11.4,1012.7,9.9,338.1,"Rain, Partially cloudy"
729,3/9/2021,3/10/2021,1,Unknown,36.24688,-96.64436,ARAOC,Unknown,US-OK,1,Group-1,"Pawnee County, Oklahoma, 74045, United States",Pawnee%20County%2C%20Oklahoma%2C%2074045%2C%20United%20States,68.1,47.4,59.1,68.85,0.75,18.1,1013.7,9.5,389.6,"Rain, Partially cloudy"
731,2/27/2020,2/27/2020,0.09500623,Human,44.14133,-115.0091,IDSCC,Timber,US-ID,0,Group-1,"Custer County, Idaho, United States",Custer%20County%2C%20Idaho%2C%20United%20States,56.9,37.2,49.4,40.79,0,19.7,1014.7,9.9,311.7,Partially cloudy
735,7/9/2020,7/10/2020,4,Human,31.9612,-110.3856,AZTDC,Unknown,US-AZ,1,Group-1,"Whetstone Rd, Cochise County, Arizona, United States",Whetstone%20Rd%2C%20Cochise%20County%2C%20Arizona%2C%20United%20States,83.9,55,70.1,17.81,0,11,1011.2,9.7,582.8,Clear
736,3/4/2021,3/18/2021,1,Unknown,37.55157,-92.13995,MOMOC,Unknown,US-MO,,,"State Highway 17, Roby, Texas County, Missouri, 65552, United States",State%20Highway%2017%2C%20Roby%2C%20Texas%20County%2C%20Missouri%2C%2065552%2C%20United%20States,65.5,47,55.6,94.15,1.22,16.4,1010.8,8.6,59.3,"Rain, Partially cloudy"
737,6/28/2020,7/12/2020,5.63641996,Natural,39.38994,-109.0335,COGJC,Brush,US-CO,,,"Garfield County, Colorado, United States",Garfield%20County%2C%20Colorado%2C%20United%20States,68.2,46.8,56.5,47.25,0,21.6,1008.6,9.9,216.4,Partially cloudy
738,2/29/2020,6/8/2020,0.1,Human,28.18582056,-81.96352249,FLFIC,Timber,US-FL,100,Group-5,"Wildlife Trail, Polk County, Florida, 33809, United States",Wildlife%20Trail%2C%20Polk%20County%2C%20Florida%2C%2033809%2C%20United%20States,94.8,70.9,82,70.65,0,12.8,1016.2,9.2,469.7,Clear
740,9/7/2020,10/5/2020,429.1345553,Unknown,47.26405595,-119.8700216,WANEC,Grass,US-WA,28,Group-2,"Martin Road Northwest, Grant County, Washington, United States",Martin%20Road%20Northwest%2C%20Grant%20County%2C%20Washington%2C%20United%20States,72.1,51.1,61.9,32.61,0,18.4,1018.1,9.9,569.9,Clear
747,8/26/2020,8/26/2020,4,Human,44.03513101,-103.0360372,SDGPC,Grass,US-SD,0,Group-1,"Pennington County, South Dakota, United States",Pennington%20County%2C%20South%20Dakota%2C%20United%20States,61.8,33.3,47.4,59.35,0.07,20.1,1017,9.8,336,"Rain, Partially cloudy"
748,7/23/2020,8/9/2020,4,Natural,42.15828,-120.8898,ORLFC,Timber,US-OR,17,Group-2,"Klamath County, Oregon, United States",Klamath%20County%2C%20Oregon%2C%20United%20States,69.2,34.1,52.1,56.99,0,12.8,1018.5,9.9,525.8,Clear
752,6/7/2020,6/23/2020,4,Unknown,42.46754,-121.4132,ORLFC,Unknown,US-OR,16,Group-2,"30381, Drews Road, Klamath County, Oregon, 97639, United States",30381%2C%20Drews%20Road%2C%20Klamath%20County%2C%20Oregon%2C%2097639%2C%20United%20States,69.2,34.1,52.1,56.99,0,12.8,1018.5,9.9,510.3,Clear
755,6/15/2020,6/25/2020,4,Human,33.19326,-112.7181,AZPDC,Unknown,US-AZ,10,Group-1,"South Old US 80, Maricopa County, Arizona, United States",South%20Old%20US%2080%2C%20Maricopa%20County%2C%20Arizona%2C%20United%20States,92.3,60.3,78.6,17.02,0,13.8,1010.6,9.8,460.7,Clear
756,6/13/2020,6/14/2020,1.913348668,Human,36.67034,-114.5217,NVLIC,Grass-Shrub,US-NV,1,Group-1,"Las Vegas Freeway, Moapa Valley, Clark County, Nevada, United States",Las%20Vegas%20Freeway%2C%20Moapa%20Valley%2C%20Clark%20County%2C%20Nevada%2C%20United%20States,89.7,59.2,77,10.89,0,6.8,1011.1,9.9,527.7,Clear
758,6/28/2020,7/12/2020,4,Human,34.10111,-118.69109,CALACC,Unknown,US-CA,,,"Mulholland Highway, Los Angeles County, California, 91302, United States",Mulholland%20Highway%2C%20Los%20Angeles%20County%2C%20California%2C%2091302%2C%20United%20States,82.5,58,68.9,55.89,0,10.8,1012.2,9.4,544.3,Clear
759,3/14/2021,3/21/2021,1,Human,35.71001,-117.8398,CACCCC,Grass-Shrub,US-CA,7,Group-1,"7885, Leliter Road, Kern County, California, 93527, United States",7885%2C%20Leliter%20Road%2C%20Kern%20County%2C%20California%2C%2093527%2C%20United%20States,111.3,74.9,95.8,18.36,0,17.3,1006.6,9.9,567.5,Clear
762,7/10/2020,7/12/2020,0.01773872,Human,36.49369,-115.6413,NVLIC,Brush,US-NV,2,Group-1,"Clark County, Nevada, United States",Clark%20County%2C%20Nevada%2C%20United%20States,89.5,58.6,76.9,11.12,0,6.9,1011,9.9,482.7,Clear
770,9/19/2020,9/29/2020,0.007906,Natural,42.07089,-113.9378,IDSCC,Grass-Shrub,US-ID,10,Group-1,"Cassia County, Idaho, United States",Cassia%20County%2C%20Idaho%2C%20United%20States,66.3,43.1,54.1,39.12,0,21.1,1015.5,9.9,485.1,Partially cloudy
771,7/13/2020,7/21/2020,3.83866726,Natural,38.87684,-112.3852,UTRFC,Grass-Shrub,US-UT,8,Group-1,"West 4500 South, Millard County, Utah, United States",West%204500%20South%2C%20Millard%20County%2C%20Utah%2C%20United%20States,73.7,36.1,56.4,27.34,0,13.6,1012.9,9.9,392.9,Clear
773,6/20/2020,6/22/2020,1.999349838,Human,35.87953,-115.2126,NVLIC,Grass,US-NV,2,Group-1,"Clark County, Nevada, United States",Clark%20County%2C%20Nevada%2C%20United%20States,89.5,58.6,76.9,11.12,0,6.9,1011,9.9,482.7,Clear
775,5/26/2020,6/2/2020,1.160327444,Human,36.00393,-115.643,NVLIC,Grass,US-NV,7,Group-1,"Pahrump Valley Highway, Clark County, Nevada, United States",Pahrump%20Valley%20Highway%2C%20Clark%20County%2C%20Nevada%2C%20United%20States,89.5,62,77.3,10.69,0,5.9,1011.4,9.9,436.1,Clear
776,3/5/2021,3/22/2021,3.88,Human,43.9805,-103.3724,SDGPC,Grass,US-SD,17,Group-2,"Pennington County, South Dakota, United States",Pennington%20County%2C%20South%20Dakota%2C%20United%20States,83.7,51.6,70.1,46.97,0,10.3,1020.6,9.9,492.3,Clear
779,2/24/2021,2/28/2021,4,Human,36.66667,-93.70779,MOMOC,Timber,US-MO,4,Group-1,"Lahmer Fire Lookout Tower, State Highway 76, Lohmer, Barry County, Missouri, United States",Lahmer%20Fire%20Lookout%20Tower%2C%20State%20Highway%2076%2C%20Lohmer%2C%20Barry%20County%2C%20Missouri%2C%20United%20States,66.4,53.3,61.5,86.39,0.01,13.9,1016.2,8.8,397.4,"Rain, Partially cloudy"
782,7/20/2020,8/31/2020,103,Human,37.47321024,-119.7222323,CAFICC,Unknown,US-CA,42,Group-3,"5790, Creel Road, Ponderosa Basin, Mariposa County, California, 95338, United States",5790%2C%20Creel%20Road%2C%20Ponderosa%20Basin%2C%20Mariposa%20County%2C%20California%2C%2095338%2C%20United%20States,91,54.4,73.9,37.67,0,8.6,1012.2,9.9,528.1,Clear
784,9/7/2020,12/9/2020,223730.7563,Unknown,47.73573,-119.9485,WACWC,Unknown,US-WA,93,Group-5,"Douglas County, Washington, United States",Douglas%20County%2C%20Washington%2C%20United%20States,72.1,49.9,61.1,35.58,0,16.3,1018.4,9.9,498.8,Clear
786,8/27/2020,9/6/2020,0.919722081,Natural,42.92111,-113.9488,IDSCC,Grass-Shrub,US-ID,10,Group-1,"Lincoln County, Idaho, 83352, United States",Lincoln%20County%2C%20Idaho%2C%2083352%2C%20United%20States,66.6,43.4,54.5,39.04,0,21.6,1015.9,9.9,397.9,Clear
787,8/4/2020,8/8/2020,4,Human,43.46157,-106.2074,WYCPC,Grass-Shrub,US-WY,4,Group-1,"WY 387, Reno Junction, Wright, Campbell County, Wyoming, 82732, United States",WY%20387%2C%20Reno%20Junction%2C%20Wright%2C%20Campbell%20County%2C%20Wyoming%2C%2082732%2C%20United%20States,33.5,23,29.6,72.79,0,9.7,1022.5,9.9,151.8,Partially cloudy
790,7/11/2020,7/24/2020,4,Natural,33.34595,-109.2972,AZFDC,Grass,US-AZ,13,Group-1,"Greenlee County, Arizona, United States",Greenlee%20County%2C%20Arizona%2C%20United%20States,86,52.1,71.6,19.93,0,13.9,1010.4,9.9,557.4,Clear
791,9/30/2020,10/2/2020,4,Human,44.03513101,-103.0360372,SDGPC,Timber,US-SD,2,Group-1,"Pennington County, South Dakota, United States",Pennington%20County%2C%20South%20Dakota%2C%20United%20States,61.8,33.3,47.4,59.35,0.07,20.1,1017,9.8,336,"Rain, Partially cloudy"
792,5/13/2020,5/28/2020,0.254451664,Human,35.82183,-115.29,NVLIC,Grass-Shrub,US-NV,15,Group-2,"South Las Vegas Boulevard, Henderson, Clark County, Nevada, 89026, United States",South%20Las%20Vegas%20Boulevard%2C%20Henderson%2C%20Clark%20County%2C%20Nevada%2C%2089026%2C%20United%20States,89.3,62,77.1,11.07,0,6.3,1011.4,9.9,460.9,Clear
793,7/20/2020,8/14/2020,2817.405069,Natural,35.99776,-115.4473,NVLIC,Grass-Shrub,US-NV,25,Group-2,"Cottonwood Valley/Dead Horse Trailhead Parking Lot, Cottonwood Pass Road, Clark County, Nevada, United States",Cottonwood%20Valley%2FDead%20Horse%20Trailhead%20Parking%20Lot%2C%20Cottonwood%20Pass%20Road%2C%20Clark%20County%2C%20Nevada%2C%20United%20States,,,,,,,,,,
794,12/22/2020,1/5/2021,100,Unknown,37.47321024,-119.7222323,CACCCC,Unknown,US-CA,,,"5790, Creel Road, Ponderosa Basin, Mariposa County, California, 95338, United States",5790%2C%20Creel%20Road%2C%20Ponderosa%20Basin%2C%20Mariposa%20County%2C%20California%2C%2095338%2C%20United%20States,91,54.4,73.9,37.67,0,8.6,1012.2,9.9,528.1,Clear
797,8/19/2020,9/2/2020,1218.904375,Unknown,40.08722,-122.9842,CAMNFC,Grass-Shrub,US-CA,,,"Long Ridge Trail, Trinity County, California, United States",Long%20Ridge%20Trail%2C%20Trinity%20County%2C%20California%2C%20United%20States,56.7,48.4,51.1,94.15,0,15,1020.5,8.2,519.9,Partially cloudy
798,11/16/2020,11/30/2020,17,Unknown,30.49447,-95.24922,TXTIC,Unknown,US-TX,14,Group-1,"Forest Service Road 235, San Jacinto County, Texas, United States",Forest%20Service%20Road%20235%2C%20San%20Jacinto%20County%2C%20Texas%2C%20United%20States,84.2,67,76.3,83.02,0.18,16.8,1009.7,7.4,190.8,"Rain, Partially cloudy"
800,6/1/2020,6/15/2020,4,Unknown,45.90683,-108.4682,MTBDC,Grass,US-MT,,,"Roundup Road, Yellowstone County, Montana, 59105, United States",Roundup%20Road%2C%20Yellowstone%20County%2C%20Montana%2C%2059105%2C%20United%20States,62.1,43.1,51.2,47.3,0,26.4,1015.5,9.9,366.2,Partially cloudy
805,8/16/2020,8/21/2020,4,Natural,43.69087,-119.9853,ORCOC,Grass-Shrub,US-OR,5,Group-1,"Deschutes County, Oregon, United States",Deschutes%20County%2C%20Oregon%2C%20United%20States,68,45.4,55.6,46.42,0,13.7,1021,9.9,450.6,Partially cloudy
806,2/4/2020,2/18/2020,4,Human,37.15861473,-91.89718255,MOMOC,Unknown,US-MO,,,"Rocky Top Road, Grogan, Texas County, Missouri, 65464, United States",Rocky%20Top%20Road%2C%20Grogan%2C%20Texas%20County%2C%20Missouri%2C%2065464%2C%20United%20States,66.6,47.8,58.8,90.04,1.25,14.2,1009.9,7.9,59.8,"Rain, Partially cloudy"
